X,Y,FID,Bundesland,Name,Baujahr,Gesamtleistung__MW_,Anzahl,Typ__WKA_,Ort,Landkreis,Breitengrad,Längengrad,Projektierer___Betreiber,Bemerkungen
8.96180555600006,54.895277778,1,Schleswig-Holstein,Windpark Ellhöft-Westre,2000,"35,45",13,AN Bonus 1300/62 (6×),Ellhöft,NF,54.8952777777778,8.96180555555556,"Bürger-WP Ellhöft, Grenzstrom Vindtved",Prototypen derRepower 6M
8.96180555600006,54.895277778,2,Schleswig-Holstein,Windpark Ellhöft-Westre,2007,,,Siemens SWT-2.3-93 (4×),Westre,,54.8952777777778,8.96180555555556,,
8.96180555600006,54.895277778,3,Schleswig-Holstein,Windpark Ellhöft-Westre,2008–2009,,,Repower 6M(3×),,,54.8952777777778,8.96180555555556,,
8.64111111100004,54.8586111110001,4,Schleswig-Holstein,Windpark Friedrich-Wilhelm-Lübke-Koog[10],1990,"71,5",34,Enercon E-66/15.66(5×),Friedrich-Wilhelm-Lübke-Koog,NF,54.8586111111111,8.64111111111111,"Bürger-WP Lübke-Koog Meeresfrieden, eeNORD",Repowering2004 (14×Vestas V80-2MWstatt 52×HSW 250) und 2008 (1×REpower MM82statt 3×Enercon-32)
8.64111111100004,54.8586111110001,5,Schleswig-Holstein,Windpark Friedrich-Wilhelm-Lübke-Koog[10],1998,,,Vestas V80-2MW(17×),,,54.8586111111111,8.64111111111111,,
8.64111111100004,54.8586111110001,6,Schleswig-Holstein,Windpark Friedrich-Wilhelm-Lübke-Koog[10],2004,,,REpower MM82(7×),,,54.8586111111111,8.64111111111111,,
8.64111111100004,54.8586111110001,7,Schleswig-Holstein,Windpark Friedrich-Wilhelm-Lübke-Koog[10],2005,,,REpower 3.4M104(4×),,,54.8586111111111,8.64111111111111,,
8.64111111100004,54.8586111110001,8,Schleswig-Holstein,Windpark Friedrich-Wilhelm-Lübke-Koog[10],2008,,,Senvion MM82(1×),,,54.8586111111111,8.64111111111111,,
8.64111111100004,54.8586111110001,9,Schleswig-Holstein,Windpark Friedrich-Wilhelm-Lübke-Koog[10],2012,,,,,,54.8586111111111,8.64111111111111,,
8.64111111100004,54.8586111110001,10,Schleswig-Holstein,Windpark Friedrich-Wilhelm-Lübke-Koog[10],2014–2015,,,,,,54.8586111111111,8.64111111111111,,
8.88194444400006,54.823611111,11,Schleswig-Holstein,Windpark Braderup,2005–2006,"18,4",8,Siemens SWT-2.3-101 (8×),Braderup,NF,54.8236111111111,8.88194444444444,Bürger-WP Braderup,
9.53294444400007,54.809888889,12,Schleswig-Holstein,Windkraftanlage Wees,1993,"0,1",1,Vestas V20-100kW(1×),Wees,SL,54.8098888888889,9.53294444444444,,
9.34977777800003,54.8019722220001,13,Schleswig-Holstein,Windkraftanlage Harrislee,1995,"0,5",1,Nordtank NTL 500/41(1×),Harrislee,SL,54.8019722222222,9.34977777777778,Balzersen,
9.45633333300003,54.7718055560001,14,Schleswig-Holstein,Windkraftanlage Flensburg[4],1996,"0,2",1,Enercon E-30/2.30(1×),Sandberg,FL,54.7718055555556,9.45633333333333,Hochschule Flensburg (Fachhochschule),Windkraftanlage für Lehr- und Forschungszwecke
8.75944444400005,54.765833333,15,Schleswig-Holstein,Windpark Galmsbüll,2009,"10,2",3,Repower 3.4M104(3×),Galmsbüll,NF,54.7658333333333,8.75944444444444,,
9.68094444400003,54.763333333,16,Schleswig-Holstein,Windpark Dollerup,2001,"8,6",5,Südwind S70(3×),Dollerup,SL,54.7633333333333,9.68094444444444,"seeBA, Jensen & Falke",
9.68094444400003,54.763333333,17,Schleswig-Holstein,Windpark Dollerup,2007,,,REpower MM82(2×),,,54.7633333333333,9.68094444444444,,
9.81,54.7616944440001,18,Schleswig-Holstein,Windpark Steinberg,1995,"1,8",3,Tacke TW 600 (3×),Steinberg,SL,54.7616944444444,9.81,,
8.56861111100005,54.7461111110001,19,Schleswig-Holstein,Windpark Oevenum[20],1990,"6,9",3,Enercon E-70(3×),Oevenum,NF,54.7461111111111,8.56861111111111,Föhrer Windkraft,"Repowering2015, (3×Enercon E-70statt je 5×Vestas V25-200kW,Vestas V27-225kWundMicon M530-250)"
8.56861111100005,54.7461111110001,20,Schleswig-Holstein,Windpark Oevenum[20],1991,,,,,,54.7461111111111,8.56861111111111,,
8.56861111100005,54.7461111110001,21,Schleswig-Holstein,Windpark Oevenum[20],1992,,,,,,54.7461111111111,8.56861111111111,,
8.56861111100005,54.7461111110001,22,Schleswig-Holstein,Windpark Oevenum[20],2015,,,,,,54.7461111111111,8.56861111111111,,
9.87347222200003,54.736222222,23,Schleswig-Holstein,Windkraftanlage Gelting,1995,"0,6",1,Tacke TW 600 (1×),Gelting,SL,54.7362222222222,9.87347222222222,,
9.29305555600007,54.720833333,24,Schleswig-Holstein,Windpark Großenwiehe,2010,"10,2",3,Repower 3.4M104(3×),Großenwiehe,SL,54.7208333333333,9.29305555555556,,
9.87630555600003,54.6699166670001,25,Schleswig-Holstein,Windpark Wittkiel[8],1995,"1,8",3,Tacke TW 600 (3×),Wittkiel,SL,54.6699166666667,9.87630555555556,Schwansener Energieanlagen,
9.84130555600007,54.667,26,Schleswig-Holstein,Windkraftanlage Oersberg,1991,"0,2",1,Vestas V25-200kW(1×),Oersberg,SL,54.667,9.84130555555556,,
13.336388889,54.6630555560001,27,Mecklenburg-Vorpommern,Windpark Schwarbe,1992,"1,12",4,Enercon-32(4×),Schwarbe,VR,54.6630555555556,13.3363888888889,Wittower Windpark,"früher insgesamt 7 AnlagenEnercon-32, mittlerweile wurden 3 Anlagen wieder zurückgebaut"
13.2855555560001,54.6525,28,Mecklenburg-Vorpommern,Windkraftanlage Starvitz,1995,"0,3",1,Tacke TW 300 (1×),Starvitz,VR,54.6525,13.2855555555556,,
9.17638888900007,54.648611111,29,Schleswig-Holstein,Windpark Löwenstedt,2013,"41,8",13,Senvion 3.4M104(6×),Löwenstedt,NF,54.6486111111111,9.17638888888889,Bürger-WP Löwenstedt,
9.17638888900007,54.648611111,30,Schleswig-Holstein,Windpark Löwenstedt,2014,,,Senvion 3.2M114(2×),,,54.6486111111111,9.17638888888889,,
9.17638888900007,54.648611111,31,Schleswig-Holstein,Windpark Löwenstedt,2015,,,Siemens SWT-3.0-113(5×),,,54.6486111111111,9.17638888888889,,
9.99944444400006,54.6315277780001,32,Schleswig-Holstein,Windpark Brodersby[8],1994,"1,8",3,Tacke TW 600 (3×),Brodersby,RD,54.6315277777778,9.99944444444444,Schwansener Energieanlagen,
9.14166666700004,54.6116666670001,33,Schleswig-Holstein,Windpark Norstedt,2003,"6,15",3,REpower MM82(3×),Norstedt,NF,54.6116666666667,9.14166666666667,,
8.90361111100003,54.6111111110001,34,Schleswig-Holstein,Windpark Reußenköge,1999,"137,75",68,NEG Micon NM80/2750 (2×),Reußenköge,NF,54.6111111111111,8.90361111111111,"WP Reußenköge I - V, Dirkshof, Diverse",
8.90361111100003,54.6111111110001,35,Schleswig-Holstein,Windpark Reußenköge,2003,,,Vestas V66-1.75MW(6×),,,54.6111111111111,8.90361111111111,,
8.90361111100003,54.6111111110001,36,Schleswig-Holstein,Windpark Reußenköge,2004,,,Vestas V80-2MW(22×),,,54.6111111111111,8.90361111111111,,
8.90361111100003,54.6111111110001,37,Schleswig-Holstein,Windpark Reußenköge,2008,,,REpower MM70(3×),,,54.6111111111111,8.90361111111111,,
8.90361111100003,54.6111111110001,38,Schleswig-Holstein,Windpark Reußenköge,2009–2010,,,REpower MM82(35×),,,54.6111111111111,8.90361111111111,,
13.286111111,54.594805556,39,Mecklenburg-Vorpommern,Windpark Bohlendorf,1997,"4,65",3,Enercon E-66/15.66(2×),Schwarbe,VR,54.5948055555556,13.2861111111111,WP Bohlendorf,
13.286111111,54.594805556,40,Mecklenburg-Vorpommern,Windpark Bohlendorf,1998,,,Vestas V66-1.65MW(1×),,,54.5948055555556,13.2861111111111,,
11.131,54.52475,41,Schleswig-Holstein,Windkraftanlage Westermarkelsdorf,1996,"0,5",1,Enercon E-40/5.40(1×),Westermarkesldorf,OH,54.52475,11.131,,
8.89611111100004,54.511111111,42,Schleswig-Holstein,Windpark Elisabeth-Sophien-Koog,2009,"13,8",6,Enercon E-70(6×),Elisabeth-Sophien-Koog,NF,54.5111111111111,8.89611111111111,"GEO, Botterkooger Windpark, IB Henning Holst",Repowering2009 (6×Enercon E-70statt 19× versch. Altanlagen)
11.0731111110001,54.5106388890001,43,Schleswig-Holstein,Windpark Fehmarn-Nordwest,2008,"13,8",6,Enercon E-70(6×),Dänschendorf,OH,54.5106388888889,11.0731111111111,Bürger-WP Fehmarn,
11.0567222220001,54.510277778,44,Schleswig-Holstein,Windpark Westfehmarn,2000,"29,7",15,Enercon E-66/15.66(6×),Westermarkelsdorf,OH,54.5102777777778,11.0567222222222,Bürger-WP Fehmarn,Repowering2007 (9×Enercon E-70statt 12× versch. Altanlagen)
11.0567222220001,54.510277778,45,Schleswig-Holstein,Windpark Westfehmarn,2007,,,Enercon E-70(9×),Schlagsdorf,,54.5102777777778,11.0567222222222,,
11.178222222,54.499638889,46,Schleswig-Holstein,Windkraftanlage Johannisberg,1991,"0,25",1,Tacke TW 250 (1×),Johannisberg,OH,54.4996388888889,11.1782222222222,,
11.125138889,54.497944444,47,Schleswig-Holstein,Windkraftanlage Gammendorf,2002,"0,66",1,Vestas V47-660kW(1×),Gammendorf,OH,54.4979444444444,11.1251388888889,,
9.17277777800007,54.4958333330001,48,Schleswig-Holstein,Windpark Wester-Ohrstedt,2004,"6,55",4,REpower MD70(3×),Wester-Ohrstedt,NF,54.4958333333333,9.17277777777778,"e3,wpd",
9.17277777800007,54.4958333330001,49,Schleswig-Holstein,Windpark Wester-Ohrstedt,,,,REpower MM82(1×),,,54.4958333333333,9.17277777777778,,
11.225,54.4841666670001,50,Schleswig-Holstein,Windpark Presen,2006–2007,"39,1",17,Enercon E-70(17×),Presen,OH,54.4841666666667,11.225,Bürger-WP Fehmarn,Repowering2006–2007
11.225,54.4841666670001,51,Schleswig-Holstein,Windpark Presen,,,,,,,54.4841666666667,11.225,,(17×Enercon E-70statt 23×Enercon E-40)
11.1105555560001,54.4838888890001,52,Schleswig-Holstein,Windpark Fehmarn-Mitte[9],2006,"57,5",25,Enercon E-70(25×),Dänschendorf,OH,54.4838888888889,11.1105555555556,"Bürger-WP Fehmarn, IB Henning Holst",Repowering2006 (25×Enercon E-70statt 27× untersch. Altanlagen)
11.1105555560001,54.4838888890001,53,Schleswig-Holstein,Windpark Fehmarn-Mitte[9],,,,,Lemkendorf,,54.4838888888889,11.1105555555556,,
11.1105555560001,54.4838888890001,54,Schleswig-Holstein,Windpark Fehmarn-Mitte[9],,,,,Vadersdorf,,54.4838888888889,11.1105555555556,,
13.302638889,54.4777777780001,55,Mecklenburg-Vorpommern,Windpark Kluis-Silenz,1999,"6,0",10,AN Bonus 600/44 (10×),Kluis,VR,54.4777777777778,13.3026388888889,WP Kluis-Silenz,
13.302638889,54.4777777780001,56,Mecklenburg-Vorpommern,Windpark Kluis-Silenz,,,,,Silenz,,54.4777777777778,13.3026388888889,,
13.319888889,54.47625,57,Mecklenburg-Vorpommern,Windkraftanlage Gagern,1999,"0,3",1,AN Bonus 300/33 (1×),Gagern,VR,54.47625,13.3198888888889,,
10.131666667,54.474444444,58,Schleswig-Holstein,Windkraftanlage Stohl,1998,"0,55",1,Euroturbine ET 550/41 (1×),Stohl,RD,54.4744444444445,10.1316666666667,2M Windtechnik,
11.0719444440001,54.4725,59,Schleswig-Holstein,Windpark Petersdorf,1991,"0,9",3,Enercon-32(3×),Petersdorf (Fehmarn),OH,54.4725,11.0719444444444,,
11.2561944440001,54.4660277780001,60,Schleswig-Holstein,Windpark Klingenberg,2006–2007,"27,6",12,Enercon E-70(12×),Klausdorf,OH,54.4660277777778,11.2561944444444,WP Klingenberg,
11.2372777780001,54.4615,61,Schleswig-Holstein,Windkraftanlage Klausdorf,1991,"0,15",1,WindWorld W2100 (1×),Klausdorf,OH,54.4615,11.2372777777778,,abgebaut 2015
11.063194444,54.4598611110001,62,Schleswig-Holstein,Windkraftanlagen Gollendorf,1991,"0,42",2,Vestas V25-200kW(1×),Gollendorf,OH,54.4598611111111,11.0631944444444,,abgebaut 2015
11.063194444,54.4598611110001,63,Schleswig-Holstein,Windkraftanlagen Gollendorf,1992,,,WindWorld W2500 (1×),,,54.4598611111111,11.0631944444444,,
11.033666667,54.4590277780001,64,Schleswig-Holstein,Windkraftanlage Püttsee,1997,"0,2",1,Vestas V25-200kW(1×),Westermarkesldorf,OH,54.4590277777778,11.0336666666667,,abgebaut 2015
10.0991666670001,54.457777778,65,Schleswig-Holstein,Windpark Schwedeneck,2000,"4,5",3,Tacke TW 1.5 (1×),Sprenge,RD,54.4577777777778,10.0991666666667,,
11.0862222220001,54.451055556,66,Schleswig-Holstein,Windkraftanlage Neuhof,1994,"0,1",1,Vestas V20-100kW(1×),Lemkenhafen,OH,54.4510555555556,11.0862222222222,,
9.03333333300003,54.4506944440001,67,Schleswig-Holstein,Windtestfeld Nord[28][29],2014,"20,8",6,SkyWind SW 3.4 (1×)[30],Südermarsch,NF,54.4506944444444,9.03333333333333,Windtestfeld-Nord,"Testfeld für neuartige Windkraftanlagen, zurzeit Test einer zweiflügeligen WindkraftanlageSkyWind SW 3.4mit neuartigem Turmkonzept[31]und der E-126 EP4 vonEnercon"
9.03333333300003,54.4506944440001,68,Schleswig-Holstein,Windtestfeld Nord[28][29],2016,,,Enercon E-126 EP4(1×),,,54.4506944444444,9.03333333333333,,
9.03333333300003,54.4506944440001,69,Schleswig-Holstein,Windtestfeld Nord[28][29],2017,,,GE Wind Energy 3.2-130(1×),,,54.4506944444444,9.03333333333333,,
9.03333333300003,54.4506944440001,70,Schleswig-Holstein,Windtestfeld Nord[28][29],,,,Siemens SWT-3.3-130(1×),,,54.4506944444444,9.03333333333333,,
9.03333333300003,54.4506944440001,71,Schleswig-Holstein,Windtestfeld Nord[28][29],,,,Nordex N131/3300(1×),,,54.4506944444444,9.03333333333333,,
9.03333333300003,54.4506944440001,72,Schleswig-Holstein,Windtestfeld Nord[28][29],,,,Senvion 3.4M104 ES(1×),,,54.4506944444444,9.03333333333333,,
11.178805556,54.423222222,73,Schleswig-Holstein,Windpark Burg auf Fehmarn,1991,"13,8",8,Micon M530-250(1×),Burg auf Fehmarn,OH,54.4232222222222,11.1788055555556,,
11.178805556,54.423222222,74,Schleswig-Holstein,Windpark Burg auf Fehmarn,1994,,,Enercon E-40/5.40(1×),,,54.4232222222222,11.1788055555556,,
11.178805556,54.423222222,75,Schleswig-Holstein,Windpark Burg auf Fehmarn,1995,,,Tacke TW 600 (6×),,,54.4232222222222,11.1788055555556,,
11.182361111,54.420972222,76,Schleswig-Holstein,Windkraftanlage Burg auf Fehmarn[3],1989,"0,25",1,HSW 250(1×),Burg auf Fehmarn,OH,54.4209722222222,11.1823611111111,Klärwerk Burg auf Fehmarn,Kombiniertes Wind- Solar und Biomassekraftwerk
9.58277777800004,54.4147222220001,77,Schleswig-Holstein,Windpark Owschlag-Boklund,2001,"10,5",4,GE Wind Energy 1.5sl(4×),Owschlag,RD,54.4147222222222,9.58277777777778,getproject,
9.58277777800004,54.4147222220001,78,Schleswig-Holstein,Windpark Owschlag-Boklund,,,,Südwind S70(3×),,,54.4147222222222,9.58277777777778,,
9.56527777800005,54.409444444,79,Schleswig-Holstein,Windpark Owschlag-Norby,2001,"12,0",8,Südwind S70(8×),Owschlag,RD,54.4094444444445,9.56527777777778,e3,
10.029722222,54.400555556,80,Schleswig-Holstein,Windpark Wulfshagen[26],2000,"13,5",7,NEG Micon NM72/2000(6×),Tüttendorf,RD,54.4005555555556,10.0297222222222,Energiequelle,Brand einer Anlage und Wiederaufbau im Jahr 2004[27]
10.029722222,54.400555556,81,Schleswig-Holstein,Windpark Wulfshagen[26],2001,,,NEG Micon NM72c/1500(1×),Felm,,54.4005555555556,10.0297222222222,,
9.46666666700003,54.392777778,82,Schleswig-Holstein,Windpark Klein Bennebek,2000,"9,6",6,Vestas V66-1.65MW(6×),Klein Bennebek,SL,54.3927777777778,9.46666666666667,e3,
12.471388889,54.39,83,Mecklenburg-Vorpommern,Windkraftanlagen Born a. Darß,1993,"0,6",2,Nordtank NTK 300/31(2×),Born a. Darß,VR,54.39,12.4713888888889,,
10.435138889,54.382777778,84,Schleswig-Holstein,Windkraftanlagen Stakendorf,1995,"1,0",2,Enercon E-40/5.40(2×),Stakendorf,PLÖ,54.3827777777778,10.4351388888889,,
10.345,54.3658333330001,85,Schleswig-Holstein,Windpark Fiefbergen,1996,"8,85",7,Vestas V44-600kW(2×),Fiefbergen,PLÖ,54.3658333333333,10.345,"WP Fiefbergen Süd, wotan",
10.345,54.3658333330001,86,Schleswig-Holstein,Windpark Fiefbergen,1999,,,Vestas V66-1.65MW(1×),,,54.3658333333333,10.345,,
10.345,54.3658333330001,87,Schleswig-Holstein,Windpark Fiefbergen,,,,Tacke TW 1.5 (4×),,,54.3658333333333,10.345,,
10.978333333,54.3619444440001,88,Schleswig-Holstein,Windkraftanlage Heiligenhafen,1992,"0,15",1,Nordtank NTK 150/25(1×),Heiligenhafen,OH,54.3619444444444,10.9783333333333,,
10.403055556,54.3586111110001,89,Schleswig-Holstein,Windpark Ratjendorf,2000,"7,3",4,Vestas V66-1.75MW(3×),Ratjendorf,PLÖ,54.3586111111111,10.4030555555556,Laboer Windpark,
10.403055556,54.3586111110001,90,Schleswig-Holstein,Windpark Ratjendorf,2006,,,REpower MM82(1×),,,54.3586111111111,10.4030555555556,,
12.764722222,54.3555555560001,91,Mecklenburg-Vorpommern,Windpark Küstrow[46],1993,"2,25",5,AN Bonus 450/37 (5×),Küstrow,VR,54.3555555555556,12.7647222222222,Windkraft Nisdorf,"Früher noch 1×Nordtank NTK 300/31, 4×Micon M530-250, 1×Micon M750-400und 4×Enercon-33, diese Anlagen wurden 2015 allesamt zurückgebaut"
12.764722222,54.3555555560001,92,Mecklenburg-Vorpommern,Windpark Küstrow[46],1995,,,,,,54.3555555555556,12.7647222222222,,
13.0035833330001,54.355,93,Mecklenburg-Vorpommern,Windpark Schmedshagen,1994,"1,7",3,Vestas V39-500kW(1×),Schmedshagen,VR,54.355,13.0035833333333,,
13.0035833330001,54.355,94,Mecklenburg-Vorpommern,Windpark Schmedshagen,1995,,,Vestas V44-600kW(2×),,,54.355,13.0035833333333,,
10.460555556,54.3533333330001,95,Schleswig-Holstein,Windpark Köhn,1995,"1,8",3,Micon M1500-600(1×),Köhn,PLÖ,54.3533333333333,10.4605555555556,Denker & Wulf,
13.039527778,54.3530555560001,96,Mecklenburg-Vorpommern,Windpark Kramerhof,1995,"1,5",3,Enercon E-40/5.40(3×),Kramerhof,VR,54.3530555555556,13.0395277777778,WP Kramerhof,
9.85222222200002,54.3505555560001,97,Schleswig-Holstein,Windpark Osterrade,2001,"17,55",10,Vestas V66-1.65MW(7×),Bovenau,RD,54.3505555555556,9.85222222222222,IB Henning Holst,
9.85222222200002,54.3505555560001,98,Schleswig-Holstein,Windpark Osterrade,2011,,,Vestas V90-2MW(3×),,,54.3505555555556,9.85222222222222,,
12.383888889,54.345,99,Mecklenburg-Vorpommern,Windkraftanlage Wustrow[9],1989,"0,2",1,Vestas V25-200kW(1×),Wustrow,VR,54.345,12.3838888888889,Klaus-Jürgen Beel,Wurde 1988 als erste Windkraftanlage derehem. DDRgegen Devisen aus dem Holzhandel ersteigert und im Oktober 1989 errichtet
13.138611111,54.344444444,100,Mecklenburg-Vorpommern,Windpark Altefähr,1993,"2,9",9,Nordtank NTK 300/31(8×),Altefähr,VR,54.3444444444445,13.1386111111111,WIDEMAG,Repoweringgeplant
13.138611111,54.344444444,101,Mecklenburg-Vorpommern,Windpark Altefähr,1995,,,Nordtank NTK 500/37(1×),,,54.3444444444445,13.1386111111111,,
13.242833333,54.341111111,102,Mecklenburg-Vorpommern,Windkraftanlagen Götemitz,1994,"1,0",1,Vestas V39-500kW(2×),Götemitz,VR,54.3411111111111,13.2428333333333,WIDEMAG,
10.9877777780001,54.340833333,103,Schleswig-Holstein,Windpark Neuratjensdorf,1999,"22,75",10,REpower MM82(1×),Neuratjensdorf,OH,54.3408333333333,10.9877777777778,WP Neuratjensdorf Rossee,Repowering2014 (9×Enercon E-70statt 8×Vestas V47-660kWund 3×Enercon E-66/15.66)
10.9877777780001,54.340833333,104,Schleswig-Holstein,Windpark Neuratjensdorf,2007,,,Enercon E-70(9×),,,54.3408333333333,10.9877777777778,,
10.9877777780001,54.340833333,105,Schleswig-Holstein,Windpark Neuratjensdorf,2014,,,,,,54.3408333333333,10.9877777777778,,
11.0511111110001,54.338611111,106,Schleswig-Holstein,Windkraftanlagen Sütel,1991,"0,8",2,Vestas V25-200kW(1×),Sütel,OH,54.3386111111111,11.0511111111111,,
11.0511111110001,54.338611111,107,Schleswig-Holstein,Windkraftanlagen Sütel,1996,,,Vestas V44-600kW(1×),,,54.3386111111111,11.0511111111111,,
13.2846111110001,54.3375,108,Mecklenburg-Vorpommern,Windpark Samtens,1999,"2,4",4,AN Bonus 600/44 (4×),Frankenthal,VR,54.3375,13.2846111111111,,
11.01,54.336388889,109,Schleswig-Holstein,Windpark Löhrstorf,1999,"8,55",4,Vestas V66-1.65MW(1×),Löhrstorf,OH,54.3363888888889,11.01,,Repowering2012 (9×Enercon E-70statt 1×Vestas V66-1.65MW)
11.01,54.336388889,110,Schleswig-Holstein,Windpark Löhrstorf,2007,,,Enercon E-70(3×),,,54.3363888888889,11.01,,
11.01,54.336388889,111,Schleswig-Holstein,Windpark Löhrstorf,2012,,,,,,54.3363888888889,11.01,,
10.8745277780001,54.331111111,112,Schleswig-Holstein,Windkraftanlage Wandelwitz,1996,"0,5",1,Enercon E-40/5.40(1×),Wandelwitz,OH,54.3311111111111,10.8745277777778,,
10.966666667,54.326944444,113,Schleswig-Holstein,Windpark Bollbrügge,2000,"16,7",7,AN Bonus 1300/62 (6×),Bollbrügge,OH,54.3269444444445,10.9666666666667,,
10.966666667,54.326944444,114,Schleswig-Holstein,Windpark Bollbrügge,2002,,,AN Bonus 2000/76 (1×),,,54.3269444444445,10.9666666666667,,
10.981944444,54.326388889,115,Schleswig-Holstein,Windkraftanlagen Meeschendorf,1995,"1,0",2,Enercon E-40/5.40(2×),Meeschendorf,OH,54.3263888888889,10.9819444444444,,
12.737361111,54.319638889,116,Mecklenburg-Vorpommern,Windkraftanlagen Kenz,1994,"1,0",1,Vestas V39-500kW(2×),Kenz,VR,54.3196388888889,12.7373611111111,,
10.90375,54.31625,117,Schleswig-Holstein,Windkraftanlagen Jahnshof,1993,"0,825",2,Vestas V27-225kW(1×),Jahnshof,OH,54.31625,10.90375,,
10.90375,54.31625,118,Schleswig-Holstein,Windkraftanlagen Jahnshof,1995,,,Vestas V44-600kW(1×),,,54.31625,10.90375,,
11.0668055560001,54.3122222220001,119,Schleswig-Holstein,Windkraftanlage Sahna,1991,"0,15",1,AN Bonus 150/30 (1×),Sahna,OH,54.3122222222222,11.0668055555556,,
11.06,54.3077777780001,120,Schleswig-Holstein,Windkraftanlagen Kraksdorf,1995,"1,0",2,Enercon E-40/5.40(2×),Kraksdorf,OH,54.3077777777778,11.06,,
11.06,54.3077777780001,121,Schleswig-Holstein,Windkraftanlagen Kraksdorf,1997,,,,,,54.3077777777778,11.06,,
9.54027777800007,54.3036111110001,122,Schleswig-Holstein,Windpark Havetoft-Klappholz,2002,"16,9",10,REpower MD70(7×),Havetoft,SL,54.3036111111111,9.54027777777778,Denker & Wulf,
9.54027777800007,54.3036111110001,123,Schleswig-Holstein,Windpark Havetoft-Klappholz,2003,,,REpower MM82(2×),Klappholz,,54.3036111111111,9.54027777777778,,
9.54027777800007,54.3036111110001,124,Schleswig-Holstein,Windpark Havetoft-Klappholz,2011,,,Enercon E-70(1×),,,54.3036111111111,9.54027777777778,,
9.54027777800007,54.3036111110001,125,Schleswig-Holstein,Windpark Havetoft-Klappholz,2015,,,,,,54.3036111111111,9.54027777777778,,
10.956111111,54.3013888890001,126,Schleswig-Holstein,Windpark Kremsdorf,2001,"16,7",9,Enercon E-66/18.70(8×),Kremsdorf,OH,54.3013888888889,10.9561111111111,"BAUUNION Wismar, WP Kremsdorf",
10.956111111,54.3013888890001,127,Schleswig-Holstein,Windpark Kremsdorf,2009,,,Enercon E-70(1×),,,54.3013888888889,10.9561111111111,,
13.260166667,54.296527778,128,Mecklenburg-Vorpommern,Windkraftanlagen Luppath,1994,"0,2",2,Ventis 20-100(1×),Luppath,VR,54.2965277777778,13.2601666666667,,Zweiflügler
11.0293055560001,54.29125,129,Schleswig-Holstein,Windpark Görtzer Kamp,2001,"7,2",4,Enercon E-66/18.70(4×),Heringsdorf,OH,54.29125,11.0293055555556,WP Görtzer Kamp,
13.0192222220001,54.2883055560001,130,Mecklenburg-Vorpommern,Windpark Lüssow,1995,"4,5",9,Enercon E-40/5.40(9×),Lüssow,VR,54.2883055555556,13.0192222222222,WP Lüssow,
11.0047222220001,54.283333333,131,Schleswig-Holstein,Windpark Kalkberg,2000,"2,64",4,Vestas V47-660kW(4×),Heringsdorf,OH,54.2833333333333,11.0047222222222,WP Kalkberg,
10.825,54.280833333,132,Schleswig-Holstein,Windpark Ehlerstorf,1999,"9,1",5,Enercon E-66/15.66(3×),Ehlerstorf,OH,54.2808333333333,10.825,Windenergie Ehlerstorf,
10.825,54.280833333,133,Schleswig-Holstein,Windpark Ehlerstorf,2010,,,Enercon E-70(2×),,,54.2808333333333,10.825,,
13.07475,54.277027778,134,Mecklenburg-Vorpommern,Windkraftanlage Groß Lüdershagen,1995,"0,3",1,Nordtank NTK 300/31(1×),Groß Lüdershagen,VR,54.2770277777778,13.07475,Fleischerei Zahlmann,Eigenversorgung des Betriebes
11.068194444,54.276666667,135,Schleswig-Holstein,Windkraftanlage Süssau,1994,"0,3",1,Nordtank NTK 300/31(1×),Süssau,OH,54.2766666666667,11.0681944444444,,
10.998166667,54.27575,136,Schleswig-Holstein,Windpark Gut Gaarz,2000,"22,8",13,Vestas V66-1.65MW(6×),Gut Gaarz,OH,54.27575,10.9981666666667,AT WP Gut Gaarz,
10.998166667,54.27575,137,Schleswig-Holstein,Windpark Gut Gaarz,2003,,,NEG Micon NM64c/1500(4×),,,54.27575,10.9981666666667,,
10.998166667,54.27575,138,Schleswig-Holstein,Windpark Gut Gaarz,2007,,,Enercon E-70(3×),,,54.27575,10.9981666666667,,
10.998166667,54.27575,139,Schleswig-Holstein,Windpark Gut Gaarz,2012,,,,,,54.27575,10.9981666666667,,
12.631388889,54.273055556,140,Mecklenburg-Vorpommern,Windpark Trinwillershagen,2003,"25,5",17,GE Wind Energy 1.5sl(17×),Wiepkenhagen,VR,54.2730555555556,12.6313888888889,WP Trinwillershagen,
12.631388889,54.273055556,141,Mecklenburg-Vorpommern,Windpark Trinwillershagen,,,,,Langenhanshagen,,54.2730555555556,12.6313888888889,,
12.5259444440001,54.2655,142,Mecklenburg-Vorpommern,Windkraftanlage Tempel,1994,"0,1",1,Ventis 20-100(1×),Tempel,VR,54.2655,12.5259444444444,,"Zweiflügler; früher zwei Anlagen, beide wurden mittlerweile wieder zurückgebaut. jetzt steht nur noch der Turm."
12.519166667,54.2505555560001,143,Mecklenburg-Vorpommern,Windpark Behrenshagen,2000,"6,0",6,AN Bonus 1000/54 (6×),Behrenshagen,VR,54.2505555555556,12.5191666666667,WP Behrenshagen,
13.152222222,54.2416666670001,144,Mecklenburg-Vorpommern,Windpark Brandshagen,1997,"2,0",4,Enercon E-40/5.40(4×),Brandshagen,VR,54.2416666666667,13.1522222222222,WP Brandshagen,
10.324083333,54.2391666670001,145,Schleswig-Holstein,Windpark Lehmkuhlen-Rethwisch,1999,"4,8",8,Tacke TW 600a (8×),Rethwisch (Lehmkuhlen),PLÖ,54.2391666666667,10.3240833333333,,
12.390277778,54.2386111110001,146,Mecklenburg-Vorpommern,Windkraftanlage Borg,2007,"2,0",5,Enercon E-70(5×),Borg,VR,54.2386111111111,12.3902777777778,WIND-Projekt,
10.903,54.234027778,147,Schleswig-Holstein,Windpark Damlos,2001,"9,1",5,Südwind S70(3×),Damlos,OH,54.2340277777778,10.903,"wind7, e3",Errichtet an derA 1
10.903,54.234027778,148,Schleswig-Holstein,Windpark Damlos,2013,,,Enercon E-82 E2(2×),,,54.2340277777778,10.903,,
10.9073333330001,54.225,149,Schleswig-Holstein,Windpark Lensahn,1998,"11,9",7,Enercon E-40/5.40(1×),Lensahn,OH,54.225,10.9073333333333,WP Lensahn,"Errichtet an derA 1,Repowering2013 (3×Enercon E-70statt 3×Enercon E-40/5.40)"
10.9073333330001,54.225,150,Schleswig-Holstein,Windpark Lensahn,2001,,,REpower MD70(1×),,,54.225,10.9073333333333,,
10.9073333330001,54.225,151,Schleswig-Holstein,Windpark Lensahn,2002,,,Enercon E-66/15.66(2×),,,54.225,10.9073333333333,,
10.9073333330001,54.225,152,Schleswig-Holstein,Windpark Lensahn,2013,,,Enercon E-70(3×),,,54.225,10.9073333333333,,
10.954444444,54.2202777780001,153,Schleswig-Holstein,Windpark Riepsdorf[22],2000,"40,14",34,Vestas V47-660kW(14×),Riepsdorf,OH,54.2202777777778,10.9544444444444,"RWE Innogy, Koselauer Windenergie",
10.954444444,54.2202777780001,154,Schleswig-Holstein,Windpark Riepsdorf[22],2001,,,Jacobs MD70 (13×),Rüting,,54.2202777777778,10.9544444444444,,
10.954444444,54.2202777780001,155,Schleswig-Holstein,Windpark Riepsdorf[22],2002,,,NEG Micon NM64c/1500(4×),Cismarfelde,,54.2202777777778,10.9544444444444,,
10.954444444,54.2202777780001,156,Schleswig-Holstein,Windpark Riepsdorf[22],,,,Enercon E-66/18.70(3×),,,54.2202777777778,10.9544444444444,,
12.4938888890001,54.213888889,157,Mecklenburg-Vorpommern,Windpark Kuhlrade,1994,24325,14,Vestas V27-225kW(1×),Kuhlrade,VR,54.2138888888889,12.4938888888889,"Notus, WIND-projekt, ATM Hartmann, e.n.o. energy, MDP & Wiemken","Früher zwei AnlagenVestas V27-225kW, eine wurde mittlerweile wieder zurückgebaut"
12.4938888890001,54.213888889,158,Mecklenburg-Vorpommern,Windpark Kuhlrade,2001,,,Micon M1800-600(1×),Bookhorst,,54.2138888888889,12.4938888888889,,
12.4938888890001,54.213888889,159,Mecklenburg-Vorpommern,Windpark Kuhlrade,2003,,,Vestas V80-2MW(10×),Freudenberg,,54.2138888888889,12.4938888888889,,
12.4938888890001,54.213888889,160,Mecklenburg-Vorpommern,Windpark Kuhlrade,2007,,,NEG Micon 64/1500(1×),,,54.2138888888889,12.4938888888889,,
12.4938888890001,54.213888889,161,Mecklenburg-Vorpommern,Windpark Kuhlrade,,,,Enercon E-70(1×),,,54.2138888888889,12.4938888888889,,
12.878444444,54.2095833330001,162,Mecklenburg-Vorpommern,Windpark Richtenberg,2000,"1,5",3,Enercon E-40/5.40(3×),Richtenberg,VR,54.2095833333333,12.8784444444444,,
9.80972222200006,54.206388889,163,Schleswig-Holstein,Windpark Bokel-Ellerdorf,2000,"18,0",6,Vestas V112-3.0MW(6×),Bokel,RD,54.2063888888889,9.80972222222222,"e3,wpd",Repowering2013 (6×Vestas V112-3.0MWstatt 1×NEG Micon NM60/1000und 9×NEG Micon NM64/1500)
9.80972222200006,54.206388889,164,Schleswig-Holstein,Windpark Bokel-Ellerdorf,2013,,,,Ellerdorf,,54.2063888888889,9.80972222222222,,
10.9347222220001,54.205555556,165,Schleswig-Holstein,Windpark Rüting,2000–2001,"7,5",5,REpower MD70(5×),Rüting,OH,54.2055555555556,10.9347222222222,,
9.30666666700006,54.203333333,166,Schleswig-Holstein,Bürgerwindpark Eider,2014,"29,7",9,Vestas V112-3.3MW(9×),Tellingstedt,HEI,54.2033333333333,9.30666666666667,Bürger-WP Eider,
9.30666666700006,54.203333333,167,Schleswig-Holstein,Bürgerwindpark Eider,,,,,Süderdorf,,54.2033333333333,9.30666666666667,,
9.40333333300003,54.203333333,168,Schleswig-Holstein,Windpark Wrohm-Osterrade,2014,"21,0",7,Vestas V112-3.0MW(7×),Wrohm,HEI,54.2033333333333,9.40333333333333,Bürger-WP Wrohm-Osterrade,
9.40333333300003,54.203333333,169,Schleswig-Holstein,Windpark Wrohm-Osterrade,,,,,Osterrade,,54.2033333333333,9.40333333333333,,
10.953333333,54.1983333330001,170,Schleswig-Holstein,Windpark Kolauerhof,2000,"4,5",3,REpower MD70(3×),Cismarfelde,OH,54.1983333333333,10.9533333333333,WP Grömitz,
10.350833333,54.193055556,171,Schleswig-Holstein,Windpark Trenter Berg,1998,"3,6",6,Tacke TW 600 (6×),Wielen,PLÖ,54.1930555555556,10.3508333333333,"wotan, WinTec",
10.350833333,54.193055556,172,Schleswig-Holstein,Windpark Trenter Berg,,,,,Trent,,54.1930555555556,10.3508333333333,,
10.8873055560001,54.192666667,173,Schleswig-Holstein,Windpark Beschendorf,2003,"6,7",4,Enercon E-66/18.70(1×),Beschendorf,OH,54.1926666666667,10.8873055555556,GefuE WP Beschendorf,
10.8873055560001,54.192666667,174,Schleswig-Holstein,Windpark Beschendorf,2012,,,AN Bonus 1300/62 (2×),,,54.1926666666667,10.8873055555556,,
10.8873055560001,54.192666667,175,Schleswig-Holstein,Windpark Beschendorf,,,,Enercon E-70(1×),,,54.1926666666667,10.8873055555556,,
13.1666666670001,54.1897222220001,176,Mecklenburg-Vorpommern,Windpark Mannhagen[49],2001,"27,9",12,Vestas V80-2MW(2×),Mannhagen,VR,54.1897222222222,13.1666666666667,"WP Mannhagen, WP Miltzow","errichtet beiderseits derB 96,Repowering2013 und 2015 (6×Vestas V90-2MWund 3×Vestas V112-3.3MWstatt 7×Vestas V80-2MW)"
13.1666666670001,54.1897222220001,177,Mecklenburg-Vorpommern,Windpark Mannhagen[49],2003,,,Vestas V90-2MW(7×),,,54.1897222222222,13.1666666666667,,
13.1666666670001,54.1897222220001,178,Mecklenburg-Vorpommern,Windpark Mannhagen[49],2013,,,Vestas V112-3.3MW(3×),,,54.1897222222222,13.1666666666667,,
13.1666666670001,54.1897222220001,179,Mecklenburg-Vorpommern,Windpark Mannhagen[49],2015,,,,,,54.1897222222222,13.1666666666667,,
12.460277778,54.1752777780001,180,Mecklenburg-Vorpommern,Windpark Kloster Wulfshagen,2005,"20,6",10,Enercon E-70(10×),Kloster Wulfshagen,VR,54.1752777777778,12.4602777777778,WIND-projekt,
12.460277778,54.1752777780001,181,Mecklenburg-Vorpommern,Windpark Kloster Wulfshagen,2009,,,,,,54.1752777777778,12.4602777777778,,
12.0170277780001,54.1697777780001,182,Mecklenburg-Vorpommern,Windpark Diedrichshagen,1993,"1,9",6,Vestas V27-225kW(4×),Diedrichshagen,HRO,54.1697777777778,12.0170277777778,Westwind,
12.0170277780001,54.1697777780001,183,Mecklenburg-Vorpommern,Windpark Diedrichshagen,2001,,,Enercon E-40/5.40(2×),,,54.1697777777778,12.0170277777778,,
12.666166667,54.1697222220001,184,Mecklenburg-Vorpommern,Windpark Semlow[67],2000,"4,3",3,Enercon E-40/5.40(2×),Semlow,VR,54.1697222222222,12.6661666666667,MBBF,
12.666166667,54.1697222220001,185,Mecklenburg-Vorpommern,Windpark Semlow[67],2001,,,AN Bonus 1300/62 (1×),,,54.1697222222222,12.6661666666667,,
11.9913333330001,54.1662777780001,186,Mecklenburg-Vorpommern,Windpark Elmenhorst,1998,"2,25",5,AN Bonus 450/37 (5×),Elmenhorst,LRO,54.1662777777778,11.9913333333333,,
13.191666667,54.1661111110001,187,Mecklenburg-Vorpommern,Windpark Wilmshagen[75],2001,"25,5",13,Vestas V80-2MW(8×),Mannhagen,VR,54.1661111111111,13.1916666666667,MBBF,Repowering2013 (3×Vestas V90-2MWstatt 1×Vestas V80-2MW)
13.191666667,54.1661111110001,188,Mecklenburg-Vorpommern,Windpark Wilmshagen[75],2004,,,GE Wind Energy 1.5s(1×),,,54.1661111111111,13.1916666666667,,
13.191666667,54.1661111110001,189,Mecklenburg-Vorpommern,Windpark Wilmshagen[75],2008,,,Vestas V90-2MW(4×),,,54.1661111111111,13.1916666666667,,
13.191666667,54.1661111110001,190,Mecklenburg-Vorpommern,Windpark Wilmshagen[75],2013,,,,,,54.1661111111111,13.1916666666667,,
12.156944444,54.1655555560001,191,Mecklenburg-Vorpommern,Windpark Stuthof,1995,"2,5",5,Enercon E-40/5.40(5×),Stuthof,HRO,54.1655555555556,12.1569444444444,WP Stuthof,
12.680111111,54.1652777780001,192,Mecklenburg-Vorpommern,Windpark Eixen,2006,"24,9",12,Enercon E-70(12×),Eixen,VR,54.1652777777778,12.6801111111111,MVC Windpark,
12.680111111,54.1652777780001,193,Mecklenburg-Vorpommern,Windpark Eixen,2013,,,,,,54.1652777777778,12.6801111111111,,
12.512777778,54.1630555560001,194,Mecklenburg-Vorpommern,Windpark Neu Guthendorf,2001,"12,0",6,Vestas V80-2MW(6×),Neu Guthendorf,VR,54.1630555555556,12.5127777777778,"WIND-projekt, WP Neu Guthendorf",
12.1318055560001,54.16175,195,Mecklenburg-Vorpommern,Windkraftanlage Breitling[1],2005,"2,5",1,Nordex N90/2500(1×),Peez,HRO,54.16175,12.1318055555556,"WIND-projekt,Nordex","Testanlage zur Simulation eines Standortes unter Offshore-ähnlichen Bedingungen, war bei Errichtung die ersteOffshore-WindkraftanlageDeutschlands"
12.220666667,54.157583333,196,Mecklenburg-Vorpommern,Windkraftanlage Mönchhagen,1994,"0,5",1,Vestas V39-500kW(1×),Mönchhagen,LRO,54.1575833333333,12.2206666666667,,"früher zwei Anlagen, eine wurde mittlerweile wieder zurückgebaut"
10.8730555560001,54.1545,197,Schleswig-Holstein,Windpark Krummbek,2001,"22,75",14,DeWind D4/48 (2×),Bentfeld,OH,54.1545,10.8730555555556,"WKN WP Krummbek, neue energien heeck",Repowering2015 (2×Enercon E-101statt 2×Nordex N62)
10.8730555560001,54.1545,198,Schleswig-Holstein,Windpark Krummbek,2002,,,DeWind D6/62 (1×),,,54.1545,10.8730555555556,,
10.8730555560001,54.1545,199,Schleswig-Holstein,Windpark Krummbek,2003,,,Nordex N62(2×),,,54.1545,10.8730555555556,,
10.8730555560001,54.1545,200,Schleswig-Holstein,Windpark Krummbek,2014,,,Vestas V66-1.65MW(5×),,,54.1545,10.8730555555556,,
10.8730555560001,54.1545,201,Schleswig-Holstein,Windpark Krummbek,2015,,,Nordex N60(1×),,,54.1545,10.8730555555556,,
10.8730555560001,54.1545,202,Schleswig-Holstein,Windpark Krummbek,,,,Enercon E-70(1×),,,54.1545,10.8730555555556,,
10.8730555560001,54.1545,203,Schleswig-Holstein,Windpark Krummbek,,,,Enercon E-101(2×),,,54.1545,10.8730555555556,,
10.3261666670001,54.1521111110001,204,Schleswig-Holstein,Windkraftanlage Ascheberg,1999,"0,225",1,Vestas V29-225kW(1×),Ascheberg,PLÖ,54.1521111111111,10.3261666666667,,
11.932083333,54.149138889,205,Mecklenburg-Vorpommern,Windpark Börgerende-Rethwisch,1994,"1,35",3,AN Bonus 450/37 (3×),Börgerende-Rethwisch,LRO,54.1491388888889,11.9320833333333,WP Börgerende,
9.25611111100005,54.148888889,206,Schleswig-Holstein,Windkraftanlagen Arkebek[1],1993,"0,22",2,Seewind 20/110 (2×),Arkebek,HEI,54.1488888888889,9.25611111111111,,"abgebaut 2015,Repoweringgeplant"
10.9177777780001,54.147222222,207,Schleswig-Holstein,Windpark Grömitz[12],1997,"5,6",5,Enercon E-40/5.40(1×),Körnick,OH,54.1472222222222,10.9177777777778,"RWE Innogy, WP Grömitz",
10.9177777780001,54.147222222,208,Schleswig-Holstein,Windpark Grömitz[12],1998,,,Enercon E-66/15.66(3×),,,54.1472222222222,10.9177777777778,,
10.9177777780001,54.147222222,209,Schleswig-Holstein,Windpark Grömitz[12],1999,,,Enercon E-40/6.44(1×),,,54.1472222222222,10.9177777777778,,
10.9177777780001,54.147222222,210,Schleswig-Holstein,Windpark Grömitz[12],2001,,,,,,54.1472222222222,10.9177777777778,,
9.41611111100002,54.147222222,211,Schleswig-Holstein,Bürgerwindpark Mittelholstein (Pemeln),2014,"25,6",8,Senvion 3.2M114(8×),Pemeln,RD,54.1472222222222,9.41611111111111,Bürger-WP Mittelholstein,
10.911472222,54.144444444,212,Schleswig-Holstein,Windpark Schashagen-Albersdorf,2002,"5,4",3,Enercon E-66/18.70(3×),Albersdorf (Schashagen),OH,54.1444444444444,10.9114722222222,WP Schashagen,
13.207222222,54.143916667,213,Mecklenburg-Vorpommern,Windkraftanlagen Segebadenhau,2002,"1,0",2,Enercon E-40/5.40(2×),Segebadenhau,VR,54.1439166666667,13.2072222222222,,
10.890555556,54.143333333,214,Schleswig-Holstein,Windpark Schashagen,2002,"7,2",4,Enercon E-66/18.70(4×),Schashagen,OH,54.1433333333333,10.8905555555556,WP Schashagen,
9.2575,54.1375,215,Schleswig-Holstein,Windpark Albersdorf[6][7],2014,"19,8",6,Vestas V112-3.3MW(6×),Albersdorf,HEI,54.1375,9.2575,"Denker & Wulf, Bürger-WP Albersdorf",Errichtet an derA 23
9.2575,54.1375,216,Schleswig-Holstein,Windpark Albersdorf[6][7],2015,,,,,,54.1375,9.2575,,
12.1791666670001,54.135277778,217,Mecklenburg-Vorpommern,Windkraftanlage Nienhagen,2014,"2,4",1,Nordex N117/2400(1×),Nienhagen,HRO,54.1352777777778,12.1791666666667,WIND-projekt,"Errichtet auf dem Gelände desGVZRostock in unmittelbarer Nähe des Produktionsstandortes der FirmaNordex, dient als Forschungsanlage zur Erprobung unterschiedlicher Komponenten"
9.86611111100007,54.134166667,218,Schleswig-Holstein,Windpark Timmaspe,2001,"13,0",10,Nordex N60(10×),Timmaspe,RD,54.1341666666667,9.86611111111111,e3,
12.318055556,54.1319444440001,219,Mecklenburg-Vorpommern,Windpark Poppendorf,2006,"11,8",4,Siemens SWT-2.3-82(2×),Poppendorf,LRO,54.1319444444444,12.3180555555556,E.ON Climate & Renewables,
12.318055556,54.1319444440001,220,Mecklenburg-Vorpommern,Windpark Poppendorf,2007,,,Siemens SWT-3.6-107(2×),,,54.1319444444444,12.3180555555556,,
9.95416666700004,54.13,221,Schleswig-Holstein,Windpark Krogaspe,2006,"4,5",3,Südwind S77(3×),Krogaspe,RD,54.13,9.95416666666667,wotan,
9.50027777800005,54.1294444440001,222,Schleswig-Holstein,Bürgerwindpark Mittelholstein (Seefeld-Gokels-Lütjenwestedt),2016,,5,Enercon E-101 (5×),Gokels,RD,54.1294444444444,9.50027777777778,Bürger-WP Mittelholstein,
11.978388889,54.1278888890001,223,Mecklenburg-Vorpommern,Windpark Admannshagen-Bargeshagen,1996,"2,9",5,Vestas V44-600kW(2×),Admannshagen-Bargeshagen,LRO,54.1278888888889,11.9783888888889,,
11.978388889,54.1278888890001,224,Mecklenburg-Vorpommern,Windpark Admannshagen-Bargeshagen,1997,,,Nordtank NTK 600/41(1×),,,54.1278888888889,11.9783888888889,,
11.978388889,54.1278888890001,225,Mecklenburg-Vorpommern,Windpark Admannshagen-Bargeshagen,,,,Enercon E-40/5.40(1×),,,54.1278888888889,11.9783888888889,,
11.978388889,54.1278888890001,226,Mecklenburg-Vorpommern,Windpark Admannshagen-Bargeshagen,,,,Tacke TW 600 (1×),,,54.1278888888889,11.9783888888889,,
12.2338888890001,54.1225,227,Mecklenburg-Vorpommern,Windpark Bentwisch,2000,"4,5",4,Nordex N54(3×),Bentwisch,LRO,54.1225,12.2338888888889,EBETHO,
12.2338888890001,54.1225,228,Mecklenburg-Vorpommern,Windpark Bentwisch,2002,,,Südwind S77(1×),,,54.1225,12.2338888888889,,
12.8524444440001,54.118472222,229,Mecklenburg-Vorpommern,Windpark Gremersdorf-Rekentin[29],2002,"31,85",18,GE Wind Energy 1.5s(11×),Gremersdorf,VR,54.1184722222222,12.8524444444444,"MBBF, Jade-Gruppe, KNE Windpark",
12.8524444440001,54.118472222,230,Mecklenburg-Vorpommern,Windpark Gremersdorf-Rekentin[29],2003,,,Enercon E-66/20.70(5×),Pöglitz,,54.1184722222222,12.8524444444444,,
12.8524444440001,54.118472222,231,Mecklenburg-Vorpommern,Windpark Gremersdorf-Rekentin[29],2004,,,Enercon E-70(1×),Rekentin,,54.1184722222222,12.8524444444444,,
12.8524444440001,54.118472222,232,Mecklenburg-Vorpommern,Windpark Gremersdorf-Rekentin[29],2013,,,Enercon E-101(1×),,,54.1184722222222,12.8524444444444,,
12.8524444440001,54.118472222,233,Mecklenburg-Vorpommern,Windpark Gremersdorf-Rekentin[29],2014,,,,,,54.1184722222222,12.8524444444444,,
9.49777777800006,54.1175,234,Schleswig-Holstein,Windpark Enercon,,,7,Enercon E-101 (7×),Gokels,RD,54.1175,9.49777777777778,WP Enercon(?),
9.49777777800006,54.1175,235,Schleswig-Holstein,Windpark Enercon,,,,,,,54.1175,9.49777777777778,,
11.630444444,54.117,236,Mecklenburg-Vorpommern,Windkraftanlage Rerik,1995,"0,25",1,Nordex N29(1×),Rerik,LRO,54.117,11.6304444444444,,
9.35972222200007,54.1169444440001,237,Schleswig-Holstein,Windpark Beldorf,1999,"8,1",5,,Beldorf,RD,54.1169444444444,9.35972222222222,Bürgerwindpark Beldorf,Repowering2015
9.35972222200007,54.1169444440001,238,Schleswig-Holstein,Windpark Beldorf,2001,,,,,,54.1169444444444,9.35972222222222,,
12.7734444440001,54.1116944440001,239,Mecklenburg-Vorpommern,Windkraftanlage Thomashof,2002,"0,3",1,AN Bonus 300/33 (1×),Thomashof,VR,54.1116944444445,12.7734444444444,,
9.26888888900004,54.1061111110001,240,Schleswig-Holstein,Windpark Tensbüttel,2014,"9,0",3,Vestas V112-3.0MW(3×),Tensbüttel-Röst,HEI,54.1061111111111,9.26888888888889,Bürger-WP Tensbüttel,Errichtet an derA 23
12.243722222,54.103388889,241,Mecklenburg-Vorpommern,Windpark Broderstorf-Fienstorf[19][20][21],2002,"29,1",13,Enron Wind 1.5sl(2×),Broderstorf,LRO,54.1033888888889,12.2437222222222,"MBBF, Jade NaturEnergie, e.n.o. energy, WP Broderstorf",Prototyp der e.n.o. energy 82
12.243722222,54.103388889,242,Mecklenburg-Vorpommern,Windpark Broderstorf-Fienstorf[19][20][21],2004,,,GE Wind Energy 1.5sl(3×),Fienstorf,,54.1033888888889,12.2437222222222,,
12.243722222,54.103388889,243,Mecklenburg-Vorpommern,Windpark Broderstorf-Fienstorf[19][20][21],2008,,,e.n.o. energy 82 (1×),,,54.1033888888889,12.2437222222222,,
12.243722222,54.103388889,244,Mecklenburg-Vorpommern,Windpark Broderstorf-Fienstorf[19][20][21],2013,,,Enercon E-101(4×),,,54.1033888888889,12.2437222222222,,
12.243722222,54.103388889,245,Mecklenburg-Vorpommern,Windpark Broderstorf-Fienstorf[19][20][21],,,,Vestas V112-3.0 MW(1×),,,54.1033888888889,12.2437222222222,,
12.243722222,54.103388889,246,Mecklenburg-Vorpommern,Windpark Broderstorf-Fienstorf[19][20][21],,,,e.n.o. energy 92 (2×),,,54.1033888888889,12.2437222222222,,
13.6105555560001,54.1030555560001,247,Mecklenburg-Vorpommern,Windpark Wusterhusen-Brünzow,1994,"31,5",25,Nordtank NTK 500/37(3×),Wusterhusen,VG,54.1030555555556,13.6105555555556,"SH WP Wusterhusen, WP Brünzow",
13.6105555560001,54.1030555560001,248,Mecklenburg-Vorpommern,Windpark Wusterhusen-Brünzow,2001,,,NEG Micon NM48/750(4×),Gustebin,,54.1030555555556,13.6105555555556,,
13.6105555560001,54.1030555560001,249,Mecklenburg-Vorpommern,Windpark Wusterhusen-Brünzow,,,,NEG Micon NM64c/1500(18×),Brünzow,,54.1030555555556,13.6105555555556,,
10.8711111110001,54.1009722220001,250,Schleswig-Holstein,Windkraftanlage Neustadt-Rettin,1988,"0,2",1,Vestas V25-200kW(1×),Rettin,OH,54.1009722222222,10.8711111111111,,abgebaut 2015
10.1350833330001,54.097916667,251,Schleswig-Holstein,Windpark Altbokhorst,2003,"9,0",5,Enercon E-66/18.70(5×),Schillsdorf,PLÖ,54.0979166666667,10.1350833333333,Windwärts,
12.9866666670001,54.0963888890001,252,Mecklenburg-Vorpommern,Windpark Grellenberg,2009,"14,3",7,Enercon E-82(5×),Grellenberg,VR,54.0963888888889,12.9866666666667,"wpd, WP Grimmen",
12.9866666670001,54.0963888890001,253,Mecklenburg-Vorpommern,Windpark Grellenberg,2013,,,Vestas V90-2MW(1×),,,54.0963888888889,12.9866666666667,,
12.9866666670001,54.0963888890001,254,Mecklenburg-Vorpommern,Windpark Grellenberg,,,,Enercon E-82 E2(1×),,,54.0963888888889,12.9866666666667,,
9.36,54.094722222,255,Schleswig-Holstein,Windpark Bendorf,,,9,,Bendorf (Holstein),RD,54.0947222222222,9.36,,
12.9625,54.094444444,256,Mecklenburg-Vorpommern,Windkraftanlagen Bassin,1998,"1,2",2,Vestas V44-600kW(2×),Bassin,VR,54.0944444444444,12.9625,,
12.9752777780001,54.0925,257,Mecklenburg-Vorpommern,Windpark Leyerhof,2006,"11,5",5,Nordex N90/2300(5×),Leyerhof,VR,54.0925,12.9752777777778,Ventisolar,
10.791111111,54.0898611110001,258,Schleswig-Holstein,Windkraftanlage Neustadt-Holm,1996,"0,6",1,DeWind D4/48 (1×),Neustadt in Holstein,OH,54.0898611111111,10.7911111111111,,
12.9963888890001,54.088888889,259,Mecklenburg-Vorpommern,Windpark Grimmen,1998,"1,8",6,AN Bonus 1300/62 (6×),Jessin,VR,54.0888888888889,12.9963888888889,"wpd, WIDEMAG, WP Grimmen",Errichtet an derA 20
11.7536388890001,54.083333333,260,Mecklenburg-Vorpommern,Windpark Boldenshagen,1998,"6,0",6,Nordex N54(6×),Boldenshagen,LRO,54.0833333333333,11.7536388888889,e.n.o. energy,
13.3011111110001,54.081111111,261,Mecklenburg-Vorpommern,Windpark Levenhagen,2000,"2,82",5,Enercon E-40/5.40(3×),Boltenhagen,VG,54.0811111111111,13.3011111111111,,
13.3011111110001,54.081111111,262,Mecklenburg-Vorpommern,Windpark Levenhagen,2001,,,Vestas V47-660kW(2×),,,54.0811111111111,13.3011111111111,,
13.0480555560001,54.076388889,263,Mecklenburg-Vorpommern,Windpark Vietlipp[72],2014,"6,9",3,Enercon E-82 E2(3×),Vietlipp,VR,54.0763888888889,13.0480555555556,Trebelwind,
12.779722222,54.075833333,264,Mecklenburg-Vorpommern,Windpark Tribsees[71],2001,"18,3",6,Enercon E-101(6×),Tribsees,VR,54.0758333333333,12.7797222222222,"SGW Sindram, Wallenborn, CIwind, WP Tribsees",Repowering2015 (vorher 10×Vestas V47-660kW)
12.779722222,54.075833333,265,Mecklenburg-Vorpommern,Windpark Tribsees[71],2015,,,,,,54.0758333333333,12.7797222222222,,
12.401111111,54.073611111,266,Mecklenburg-Vorpommern,Windkraftanlagen Sanitz,1994,"0,885",2,Vestas V27-225kW(1×),Oberhof,LRO,54.0736111111111,12.4011111111111,,
12.401111111,54.073611111,267,Mecklenburg-Vorpommern,Windkraftanlagen Sanitz,2003,,,Vestas V47-660kW(1×),,,54.0736111111111,12.4011111111111,,
11.768333333,54.0719444440001,268,Mecklenburg-Vorpommern,Windpark Kröpelin,2001,"8,4",9,Nordex N54(6×),Boldenshagen,LRO,54.0719444444444,11.7683333333333,DK WP Kröpelin,
11.768333333,54.0719444440001,269,Mecklenburg-Vorpommern,Windpark Kröpelin,2009,,,Enercon E-53(3×),,,54.0719444444444,11.7683333333333,,
9.5325,54.0708333330001,270,Schleswig-Holstein,Windpark Puls,1999,"16,5",10,Vestas V66-1.65MW(10×)REpower MM82(1×),Puls,IZ,54.0708333333333,9.5325,WKN,
12.718611111,54.070555556,271,Mecklenburg-Vorpommern,Windkraftanlage Langsdorf,1995,"0,5",1,Enercon E-40/5.40(1×),Langsdorf,VR,54.0705555555556,12.7186111111111,Berding Beton,"errichtet auf Betriebsgelände eines betonverarbeitenden Unternehmens, an derA 20"
9.2425,54.0697222220001,272,Schleswig-Holstein,Windpark Eggstedt-Süderhastedt,1998,"41,5",15,Repower MM82(3×),Eggstedt,HEI,54.0697222222222,9.2425,WES-IBS,Repowering2011 (3×REpower MM92statt 2× DeWind D4/48)
9.2425,54.0697222220001,273,Schleswig-Holstein,Windpark Eggstedt-Süderhastedt,2004,,,REpower MM92(3×),Süderhastedt,,54.0697222222222,9.2425,,
9.2425,54.0697222220001,274,Schleswig-Holstein,Windpark Eggstedt-Süderhastedt,2011,,,Senvion 3.4M104(2×),,,54.0697222222222,9.2425,,
9.2425,54.0697222220001,275,Schleswig-Holstein,Windpark Eggstedt-Süderhastedt,2014,,,Senvion 3.2M114(7×),,,54.0697222222222,9.2425,,
11.842444444,54.067777778,276,Mecklenburg-Vorpommern,Windkraftanlagen Brusow[2],2013–2014,"7,0",2,e.n.o. energy 114 (2×),Brusow,LRO,54.0677777777778,11.8424444444444,e.n.o. energy,Prototypen der e.n.o. energy 114
11.842444444,54.067777778,277,Mecklenburg-Vorpommern,Windkraftanlagen Brusow[2],2015,,,,,,54.0677777777778,11.8424444444444,,
13.7438888890001,54.0672222220001,278,Mecklenburg-Vorpommern,Windpark Wolgast,1997,"10,5",19,Enercon E-40/5.40(18×),Wolgast,VG,54.0672222222222,13.7438888888889,"Pommer & Schwarz, EBV WP Wolgast",
13.7438888890001,54.0672222220001,279,Mecklenburg-Vorpommern,Windpark Wolgast,,,,Enercon E-66/15.66(1×),,,54.0672222222222,13.7438888888889,,
13.06125,54.0658333330001,280,Mecklenburg-Vorpommern,Windpark Rakow,2000,"31,0",29,DeWind D4/48 (21×),Rakow,VR,54.0658333333333,13.06125,Plambeck Neue Energien,
13.06125,54.0658333330001,281,Mecklenburg-Vorpommern,Windpark Rakow,2012,,,Enercon E-82 E2(8×),,,54.0658333333333,13.06125,,
9.52944444400003,54.0636111110001,282,Schleswig-Holstein,Windpark Oldenborstel[21],2014,"6,4",2,Senvion 3.2M114(2×),Oldenborstel,IZ,54.0636111111111,9.52944444444445,"iTerra Wind, Bürger-WP Oldenborstel",
13.3563888890001,54.06,283,Mecklenburg-Vorpommern,Windpark Helmshagen-Hinrichshagen[33],2000,"11,28",10,Vestas V47-660kW(8×),Helmshagen,VG,54.06,13.3563888888889,"Wallenborn Projekt, WP Helmshagen, BMB Windkraft",Repowering2015 (2×Vestas V112-3.0MWstatt 7×Vestas V47-660kW)
13.3563888890001,54.06,284,Mecklenburg-Vorpommern,Windpark Helmshagen-Hinrichshagen[33],2001,,,Vestas V112-3.0MW(2×),Hinrichshagen,,54.06,13.3563888888889,,
13.3563888890001,54.06,285,Mecklenburg-Vorpommern,Windpark Helmshagen-Hinrichshagen[33],2015,,,,,,54.06,13.3563888888889,,
13.7411111110001,54.0580555560001,286,Mecklenburg-Vorpommern,Windkraftanlage Wolgast,1995,"0,15",1,AN Bonus 150/30 (1×),Wolgast,VG,54.0580555555556,13.7411111111111,ZV Wolgast,errichtet an der Kläranlage in Wolgast zur Eigenversorgung
13.225833333,54.0580555560001,287,Mecklenburg-Vorpommern,Windpark Groß Bisdorf[30],2012,"21,0",7,Vestas V112-3.0MW(7×),Groß Bisdorf,VG,54.0580555555556,13.2258333333333,"Erneuerbare Energien Groß Bisdorf, InvestInvent",Errichtet an derA 20
9.38611111100005,54.0558333330001,288,Schleswig-Holstein,Windpark Besdorf-Bokhorst,1999,"10,5",10,HSW 1000 (6×),Besdorf,IZ,54.0558333333333,9.38611111111111,"wpd, Gewi, e3",Errichtet an derA23
9.38611111100005,54.0558333330001,289,Schleswig-Holstein,Windpark Besdorf-Bokhorst,2003,,,REpower 57/1000(4×),Bokhorst,,54.0558333333333,9.38611111111111,,
10.639444444,54.0555555560001,290,Schleswig-Holstein,Windpark Kesdorf,1995,"15,1",17,Tacke TW 600 (2×),Kesdorf,OH,54.0555555555556,10.6394444444444,IB Henning Holst,
10.639444444,54.0555555560001,291,Schleswig-Holstein,Windpark Kesdorf,2001,,,Vestas V42-600kW(3×),,,54.0555555555556,10.6394444444444,,
10.639444444,54.0555555560001,292,Schleswig-Holstein,Windpark Kesdorf,,,,DeWind D4/48 (1×),,,54.0555555555556,10.6394444444444,,
10.639444444,54.0555555560001,293,Schleswig-Holstein,Windpark Kesdorf,,,,DeWind D6/62 (10×),,,54.0555555555556,10.6394444444444,,
10.639444444,54.0555555560001,294,Schleswig-Holstein,Windpark Kesdorf,,,,Enron Wind 1.5s (1×),,,54.0555555555556,10.6394444444444,,
11.606722222,54.053472222,295,Mecklenburg-Vorpommern,Windkraftanlagen Teßmannsdorf,1992,"0,3",1,Nordtank NTK 150 XRL (2×),Teßmannsdorf,LRO,54.0534722222222,11.6067222222222,,
13.2583333330001,54.0530555560001,296,Mecklenburg-Vorpommern,Windpark Dersekow,1998,"21,82",20,Enercon E-40/5.40(1×),Dersekow,VG,54.0530555555556,13.2583333333333,WP Dersekow,errichtet beiderseits derA 20
13.2583333330001,54.0530555560001,297,Mecklenburg-Vorpommern,Windpark Dersekow,2001,,,Vestas V47-660kW(2×),,,54.0530555555556,13.2583333333333,,
13.2583333330001,54.0530555560001,298,Mecklenburg-Vorpommern,Windpark Dersekow,2009,,,Vestas V90-2MW(10×),,,54.0530555555556,13.2583333333333,,
9.57027777800005,54.0525,299,Schleswig-Holstein,Windpark Reher,2002,"21,1",11,Enercon E-66/18.70(2×),Reher,IZ,54.0525,9.57027777777778,"BAUUNION Wismar, Bürger-WP Reher",
9.57027777800005,54.0525,300,Schleswig-Holstein,Windpark Reher,2004,,,REpower MD77(1×),,,54.0525,9.57027777777778,,
9.57027777800005,54.0525,301,Schleswig-Holstein,Windpark Reher,2005,,,Enercon E-70(8×),,,54.0525,9.57027777777778,,
12.005,54.0516666670001,302,Mecklenburg-Vorpommern,Windpark Stäbelow[68],2013,"26,4",12,e.n.o. energy 92 (12×),Stäbelow,LRO,54.0516666666667,12.005,e.n.o. energy,weitere 2 eno126 (jeweils 200 m hoch) genehmigt
12.005,54.0516666670001,303,Mecklenburg-Vorpommern,Windpark Stäbelow[68],2014,,,,Hastorf,,54.0516666666667,12.005,,
9.41972222200008,54.0458333330001,304,Schleswig-Holstein,Windpark Kohlenbek[14],2014,"12,2",4,Enercon E-101(4×),Kohlenbek,IZ,54.0458333333333,9.41972222222222,Bürger-WP Kohlenbek,Errichtet an derA23
9.54194444400002,54.0355555560001,305,Schleswig-Holstein,Windpark Looft[17],2001,"19,9",10,Vestas V66-1.65MW(6×),Looft,IZ,54.0355555555556,9.54194444444445,"WKN, Windkraft Looft",
9.54194444400002,54.0355555560001,306,Schleswig-Holstein,Windpark Looft[17],2014–2015,,,Vestas V90-2MW(2×),,,54.0355555555556,9.54194444444445,,
9.54194444400002,54.0355555560001,307,Schleswig-Holstein,Windpark Looft[17],,,,Vestas V112-3.0MW(2×),,,54.0355555555556,9.54194444444445,,
12.1922222220001,54.031944444,308,Mecklenburg-Vorpommern,Windpark Hohen Schwarfs[37],1999,"9,0",5,Enercon E-66/15.66(2×),Hohen Schwarfs,LRO,54.0319444444444,12.1922222222222,Nordum Akademie,Errichtet amAutobahnkreuz Rostock
12.1922222220001,54.031944444,309,Mecklenburg-Vorpommern,Windpark Hohen Schwarfs[37],2002,,,Vestas V80-2MW(3×),,,54.0319444444444,12.1922222222222,,
11.6308333330001,54.026944444,310,Mecklenburg-Vorpommern,Windpark Buschmühlen-Rakow,2000,"19,3",12,Vestas V66-1.65MW(4×),Buschmühlen,LRO,54.0269444444444,11.6308333333333,wpd,
11.6308333330001,54.026944444,311,Mecklenburg-Vorpommern,Windpark Buschmühlen-Rakow,2001,,,Nordex N50(1×),Rakow,,54.0269444444444,11.6308333333333,,
11.6308333330001,54.026944444,312,Mecklenburg-Vorpommern,Windpark Buschmühlen-Rakow,2010,,,Nordex N62(3×),,,54.0269444444444,11.6308333333333,,
11.6308333330001,54.026944444,313,Mecklenburg-Vorpommern,Windpark Buschmühlen-Rakow,,,,Nordex N80/2500(2×),,,54.0269444444444,11.6308333333333,,
11.6308333330001,54.026944444,314,Mecklenburg-Vorpommern,Windpark Buschmühlen-Rakow,,,,Fuhrländer FL MD77(2×),,,54.0269444444444,11.6308333333333,,
13.1005555560001,54.026666667,315,Mecklenburg-Vorpommern,Windpark Nielitz[54],2006,"10,0",5,Vestas V90-2MW(5×),Nielitz,VG,54.0266666666667,13.1005555555556,MBBF,
12.3594444440001,54.023888889,316,Mecklenburg-Vorpommern,Windkraftanlagen Gubkow,2003,"5,0",2,Nordex N80/2500(2×),Gubkow,LRO,54.0238888888889,12.3594444444444,WP Gubkow,
12.1758333330001,54.018333333,317,Mecklenburg-Vorpommern,Windpark Kavelstorf,2001,"10,2",8,Nordex N54(2×),Kavelstorf,LRO,54.0183333333333,12.1758333333333,"DK WP Kavelstorf, Northland Power",Errichtet an derA 20
12.1758333330001,54.018333333,318,Mecklenburg-Vorpommern,Windpark Kavelstorf,2005,,,Nordex N60(4×),Damm,,54.0183333333333,12.1758333333333,,
12.1758333330001,54.018333333,319,Mecklenburg-Vorpommern,Windpark Kavelstorf,,,,REpower MD77(2×),,,54.0183333333333,12.1758333333333,,
11.6833333330001,54.016666667,320,Mecklenburg-Vorpommern,Windkraftanlagen Neubukow[6],2012,"9,88",2,Enercon E-126(1×),Neubukow,LRO,54.0166666666667,11.6833333333333,WIND-projekt,
11.6833333330001,54.016666667,321,Mecklenburg-Vorpommern,Windkraftanlagen Neubukow[6],2013,,,Enercon E-70(1×),,,54.0166666666667,11.6833333333333,,
13.1277777780001,54.010277778,322,Mecklenburg-Vorpommern,Windpark Vorbein,1999,"6,62",8,Vestas V47-660kW(7×),Vorbein,VG,54.0102777777778,13.1277777777778,WPV WP Vorbein,
13.1277777780001,54.010277778,323,Mecklenburg-Vorpommern,Windpark Vorbein,2013,,,Vestas V90-2MW(1×),,,54.0102777777778,13.1277777777778,,
9.83944444400004,54.010277778,324,Schleswig-Holstein,Windpark Willenscharen-Brokstedt,1999,"22,35",15,Vestas V66-1.65MW(12×),Willenscharen,IZ,54.0102777777778,9.83944444444444,"Bürger-WP Willenscharen-Brokstedt, DGE",
9.83944444400004,54.010277778,325,Schleswig-Holstein,Windpark Willenscharen-Brokstedt,2003,,,Vestas V52-850kW(3×),Brokstedt,,54.0102777777778,9.83944444444444,,
10.7025,54.0072222220001,326,Schleswig-Holstein,Windkraftanlage Schürsdorf,1990,"0,15",1,AN Bonus 150/30 (1×),Schürsdorf,OH,54.0072222222222,10.7025,Gärtnerei Rahlf,
13.346666667,54.0069444440001,327,Mecklenburg-Vorpommern,Windpark Dargelin,1995,"1,5",3,Vestas V39-500kW(3×),Dargelin,VG,54.0069444444444,13.3466666666667,,
11.6822222220001,54.0047222220001,328,Mecklenburg-Vorpommern,Windpark Ravensberg-Krempin-Panzow[56],2010,,,Fuhrländer FL MD77(1×),,,54.0047222222222,11.6822222222222,,
11.6822222220001,54.0047222220001,329,Mecklenburg-Vorpommern,Windpark Ravensberg-Krempin-Panzow[56],2014,,,Nordex N100/2500(4×),,,54.0047222222222,11.6822222222222,,
10.648611111,54.004166667,330,Schleswig-Holstein,Windpark Schwochel-Wulfsdorf,2000,"21,5",14,Vestas V66-1.65MW(12×),Schwochel,OH,54.0041666666667,10.6486111111111,WKN,
10.648611111,54.004166667,331,Schleswig-Holstein,Windpark Schwochel-Wulfsdorf,2002,,,Vestas V52-850kW(2×),Wulfsdorf,,54.0041666666667,10.6486111111111,,
9.86805555600006,54.0038888890001,332,Schleswig-Holstein,Windpark Hasenkrug-Hardebek,2000,"27,6",12,Enercon E-82 E2(12×),Hasenkrug,SE,54.0038888888889,9.86805555555556,"e3,wpd",Repowering2013 (12×Enercon E-82 E2statt 12×NEG Micon NM60/1000)
9.86805555600006,54.0038888890001,333,Schleswig-Holstein,Windpark Hasenkrug-Hardebek,2013,,,,Hardebek,,54.0038888888889,9.86805555555556,,
12.033333333,54.003055556,334,Mecklenburg-Vorpommern,Windkraftanlage Ziesendorf,1996,"0,225",1,Vestas V29-225kW(1×),Ziesendorf,LRO,54.0030555555556,12.0333333333333,WIND-projekt,
11.723,54.0010833330001,335,Mecklenburg-Vorpommern,Windpark Ravensberg-Krempin-Panzow[56],1998,"27,1",17,AN Bonus 1300/62 (12×),Panzow,LRO,54.0010833333333,11.723,WIND-projekt,"Prototypen derNordex N100/2500, eine dieser Anlagen trägt auf der Gondel das Vereinsemblem vonFC Hansa Rostock"
12.1730555560001,53.9986111110001,336,Mecklenburg-Vorpommern,Windpark Reez,1996,"1,5",3,Enercon E-40/5.40(3×),Reez,LRO,53.9986111111111,12.1730555555556,WP Reez,
13.139388889,53.9952222220001,337,Mecklenburg-Vorpommern,Windkraftanlagen Vorbein,2000,"1,0",2,Enercon E-40/5.40(2×),Vorbein,VG,53.9952222222222,13.1393888888889,,
13.3044444440001,53.9927777780001,338,Mecklenburg-Vorpommern,Windpark Görmin,1995,"22,29",13,Vestas V47-660kW(7×),Göslow,VG,53.9927777777778,13.3044444444444,"ContinoWind,WEB Windenergie, WIDEMAG, Görminer Windpark","errichtet an derA 20,Repowering2011 (1×Enercon E-101statt 3×Vestas V39-500kW), Prototyp derEnercon E-101"
13.3044444440001,53.9927777780001,339,Mecklenburg-Vorpommern,Windpark Görmin,1999,,,Vestas V80-2MW(4×),Trissow,,53.9927777777778,13.3044444444444,,
13.3044444440001,53.9927777780001,340,Mecklenburg-Vorpommern,Windpark Görmin,2003,,,Vestas V90-2MW(1×),Böken,,53.9927777777778,13.3044444444444,,
13.3044444440001,53.9927777780001,341,Mecklenburg-Vorpommern,Windpark Görmin,2006,,,Enercon E-101(1×),,,53.9927777777778,13.3044444444444,,
13.3044444440001,53.9927777780001,342,Mecklenburg-Vorpommern,Windpark Görmin,2011,,,,,,53.9927777777778,13.3044444444444,,
13.6161111110001,53.9922222220001,343,Mecklenburg-Vorpommern,Windpark Karlsburg[40],1996,"25,5",19,Nordtank NTK 500/37(3×),Karlsburg,VG,53.9922222222222,13.6161111111111,"WIND-projekt, Renertec",
13.6161111110001,53.9922222220001,344,Mecklenburg-Vorpommern,Windpark Karlsburg[40],2001,,,REpower MD70(6×),Lühmannsdorf,,53.9922222222222,13.6161111111111,,
13.6161111110001,53.9922222220001,345,Mecklenburg-Vorpommern,Windpark Karlsburg[40],2003,,,REpower MD77(10×),,,53.9922222222222,13.6161111111111,,
11.9436111110001,53.9861111110001,346,Mecklenburg-Vorpommern,Windpark Hohen Luckow,2012,"46,6",14,Nordex N117/2400(1×),Hohen Luckow,LRO,53.9861111111111,11.9436111111111,"Denker & Wulf, Gut Hohen Luckow","errichtet beiderseits derA 20, erste Kundenanlage des TypsNordex N117/2400"
11.9436111110001,53.9861111110001,347,Mecklenburg-Vorpommern,Windpark Hohen Luckow,2013,,,REpower 3.4M104(13×),,,53.9861111111111,11.9436111111111,,
9.41444444400003,53.9855555560001,348,Schleswig-Holstein,Windpark Huje[13],2000,"24,75",15,Vestas V66-1.65MW(15×),Huje,IZ,53.9855555555556,9.41444444444445,WKN,
9.41444444400003,53.9855555560001,349,Schleswig-Holstein,Windpark Huje[13],,,,,Nutteln,,53.9855555555556,9.41444444444445,,
9.09166666700003,53.9838888890001,350,Schleswig-Holstein,Windpark St. Michaelisdonn,2007,"6,15",3,REpower MM82(3×),St. Michaelisdonn,HEI,53.9838888888889,9.09166666666667,,
11.696555556,53.9760555560001,351,Mecklenburg-Vorpommern,Windkraftanlagen Kirch Mulsow[4],2010,"4,2",2,e.n.o. energy 82 (1×),Kirch Mulsow,LRO,53.9760555555556,11.6965555555556,e.n.o. energy,Prototyp der e.n.o. energy 92
11.696555556,53.9760555560001,352,Mecklenburg-Vorpommern,Windkraftanlagen Kirch Mulsow[4],,,,e.n.o. energy 92 (1×),,,53.9760555555556,11.6965555555556,,
11.882083333,53.970027778,353,Mecklenburg-Vorpommern,Windpark Satow[65],1995,"6,4",5,Enercon E-40/5.40(2×),Satow,LRO,53.9700277777778,11.8820833333333,Energie 21,
11.882083333,53.970027778,354,Mecklenburg-Vorpommern,Windpark Satow[65],2013,,,Enercon E-53(1×),,,53.9700277777778,11.8820833333333,,
11.882083333,53.970027778,355,Mecklenburg-Vorpommern,Windpark Satow[65],,,,Enercon E-70(2×),,,53.9700277777778,11.8820833333333,,
11.8984444440001,53.9671111110001,356,Mecklenburg-Vorpommern,Windpark Jürgenshagen,2002,"6,4",5,AN Bonus 1300/62 (6×),Satow,LRO,53.9671111111111,11.8984444444444,wpd,errichtet beiderseits derA 20
11.8984444440001,53.9671111110001,357,Mecklenburg-Vorpommern,Windpark Jürgenshagen,,,,AN Bonus 2000/76 (2×),,,53.9671111111111,11.8984444444444,,
9.93305555600006,53.964722222,358,Schleswig-Holstein,Windpark Wiemersdorf[25],2001,"32,8",16,Enercon E-66/18.70(6×),Wiemersdorf,SE,53.9647222222222,9.93305555555556,"Bürger-WP Wiemersdorf, Geo mbH,Nordex",Testgelände für Offshore-Windkraftanlagen
9.93305555600006,53.964722222,359,Schleswig-Holstein,Windpark Wiemersdorf[25],2004,,,REpower MD77(3×),,,53.9647222222222,9.93305555555556,,
9.93305555600006,53.964722222,360,Schleswig-Holstein,Windpark Wiemersdorf[25],2010,,,Nordex N100/2500(7×),,,53.9647222222222,9.93305555555556,,
12.224444444,53.962805556,361,Mecklenburg-Vorpommern,Windpark Kankel,2013,"8,05",3,Wind to Energy W2E-120/3fc (2×),Kankel,LRO,53.9628055555556,12.2244444444444,"Kloss New Energy, wp ingenieurbau, W2E WP Kankel","Windtestfeld zum Testen der Prototypen des HerstellersWind to Energy(nachfolgendes Unternehmen vonFuhrländer, auf dessen Technologie die Anlagen basieren)"
12.224444444,53.962805556,362,Mecklenburg-Vorpommern,Windpark Kankel,2014,,,Wind to Energy W2E-100/2.0 (1×),,,53.9628055555556,12.2244444444444,,
8.94361111100005,53.960555556,363,Schleswig-Holstein,Windpark Kronprinzenkoog,2006,"16,15",8,Enercon E-82(5×),Kronprinzenkoog,HEI,53.9605555555556,8.94361111111111,,
8.94361111100005,53.960555556,364,Schleswig-Holstein,Windpark Kronprinzenkoog,2010,,,REpower MM92(3×),,,53.9605555555556,8.94361111111111,,
11.8418611110001,53.958083333,365,Mecklenburg-Vorpommern,Windkraftanlage Radegast,1996,"0,5",1,Nordtank NTK 500/37(1×),Radegast,LRO,53.9580833333333,11.8418611111111,,
11.86625,53.955833333,366,Mecklenburg-Vorpommern,Windpark Radegast[62],2003,"8,3",5,GE Wind Energy 1.5sl(4×),Radegast,LRO,53.9558333333333,11.86625,MBBF,errichtet an derA 20
11.86625,53.955833333,367,Mecklenburg-Vorpommern,Windpark Radegast[62],2006,,,Enercon E-70(1×),,,53.9558333333333,11.86625,,
9.31722222200005,53.95,368,Schleswig-Holstein,Windpark Krützfleth[15],1994,"0,6",3,Micon M450-200(3×),Neuendorf-Sachsenbande,IZ,53.95,9.31722222222222,Geo mbH,"Repoweringgeplant, ursprünglich insgesamt 6 ×Micon M450-200"
9.39805555600003,53.949166667,369,Schleswig-Holstein,Windpark Moorhusen[13],2000,"23,5",16,AN Bonus 1000/54 (1×),Moorhusen,IZ,53.9491666666667,9.39805555555556,Ventotec,
9.39805555600003,53.949166667,370,Schleswig-Holstein,Windpark Moorhusen[13],2001,,,NEG Micon NM64c/1500(15×),Krummendiek,,53.9491666666667,9.39805555555556,,
10.7975555560001,53.943777778,371,Schleswig-Holstein,Windpark Grammersdorf,1996,"9,45",14,Vestas V44-600kW(13×),Grammersdorf,OH,53.9437777777778,10.7975555555556,Windkraft Grammersdorf,Repoweringgeplant
10.7975555560001,53.943777778,372,Schleswig-Holstein,Windpark Grammersdorf,2002,,,Vestas V66-1.65MW(1×),,,53.9437777777778,10.7975555555556,,
10.7975555560001,53.943777778,373,Schleswig-Holstein,Windpark Klötzin,1997,"6,9",3,Enercon E-70(3×),Grammersdorf,OH,53.9437777777778,10.7975555555556,Windkraft Grammersdorf,Repowering2013 (3×Enercon E-70statt 6× Tacke TW 600)
10.7975555560001,53.943777778,374,Schleswig-Holstein,Windpark Klötzin,2013,,,,,,53.9437777777778,10.7975555555556,,
13.287222222,53.9422222220001,375,Mecklenburg-Vorpommern,Windpark Bentzin,1998,"1,8",3,Vestas V44-600kW(3×),Bentzin,VG,53.9422222222222,13.2872222222222,ContinoWind,
12.6780555560001,53.9403333330001,376,Mecklenburg-Vorpommern,Windpark Dölitz,1995,"3,6",6,Vestas V44-600kW(6×),Dölitz,LRO,53.9403333333333,12.6780555555556,Müritzer WKA,
10.825,53.94,377,Schleswig-Holstein,Windpark Lübeck-Nord,2012,"4,6",2,Enercon E-82 E2(2×),Ivendorf,HL,53.94,10.825,"STAWAG, Trave EE",Repowering2012 (Abbau des Windparks in Brodten)
10.825,53.94,378,Schleswig-Holstein,Windpark Lübeck-Nord,,,,,Pöppendorf,,53.94,10.825,,
10.5722222220001,53.9377777780001,379,Schleswig-Holstein,Windpark Obernwohlde,2016,"18,3",6,Enercon E-101,Obernwohlde[19],OH,53.9377777777778,10.5722222222222,SUSI Renewable Energy Fund II (Investmentfonds),
9.25583333300006,53.9325,380,Schleswig-Holstein,Windpark Ecklak,2001,"16,6",9,Enercon E-66/18.70(7×),Ecklak,IZ,53.9325,9.25583333333333,"HCE Design, NET",
9.25583333300006,53.9325,381,Schleswig-Holstein,Windpark Ecklak,2007,,,Enercon E-70(2×),,,53.9325,9.25583333333333,,
9.10194444400003,53.9311111110001,382,Schleswig-Holstein,Windpark Brunsbüttel,2004,"20,0",10,Vestas V80-2MW(10×),Brunsbüttel,HEI,53.9311111111111,9.10194444444444,Ventotec,
8.95,53.9272222220001,383,Schleswig-Holstein,Windenergiepark Westküste,1987,"7,4",4,Enercon E-58(1×),Kaiser-Wilhelm-Koog,HEI,53.9272222222222,8.95,Windenergiepark Westküste,"Erster Deutscher Windpark, Windkraftanlagentestfeld, Getestete Windkraftanlagen: MAN Aeroman 30 (20×), elektrOmat 25 (5×),Enercon E-16(5×), Adler 25 (2×),Enercon E-33(1×), HSW 250 T (1×), Tacke TW 250 (1×), Vestas V27-225kW (1×),Enercon E-40(1×), Vestas V63-1.5MW (1×)"
8.95,53.9272222220001,384,Schleswig-Holstein,Windenergiepark Westküste,1989,,,Enercon E-66/18.70(1×),,,53.9272222222222,8.95,,
8.95,53.9272222220001,385,Schleswig-Holstein,Windenergiepark Westküste,1993,,,Enercon E-70(2×),,,53.9272222222222,8.95,,
8.95,53.9272222220001,386,Schleswig-Holstein,Windenergiepark Westküste,1994,,,,,,53.9272222222222,8.95,,
8.95,53.9272222220001,387,Schleswig-Holstein,Windenergiepark Westküste,1997,,,,,,53.9272222222222,8.95,,
8.95,53.9272222220001,388,Schleswig-Holstein,Windenergiepark Westküste,2002,,,,,,53.9272222222222,8.95,,
8.95,53.9272222220001,389,Schleswig-Holstein,Windenergiepark Westküste,2004,,,,,,53.9272222222222,8.95,,
8.95,53.9272222220001,390,Schleswig-Holstein,Windenergiepark Westküste,2009,,,,,,53.9272222222222,8.95,,
9.3275,53.9266666670001,391,Schleswig-Holstein,Windpark Nortorf,2001,"17,4",10,NEG Micon NM64c/1500(7×),Nortorf,IZ,53.9266666666667,9.3275,"Geo mbH, Bürger-WP Nortorf, WP Norderwisch",
9.3275,53.9266666670001,392,Schleswig-Holstein,Windpark Nortorf,2010,,,Enercon E-70(3×),,,53.9266666666667,9.3275,,
11.561527778,53.9238888890001,393,Mecklenburg-Vorpommern,Windpark Kalsow,2007,"14,4",8,Südwind S77(5×),Kalsow,NWM,53.9238888888889,11.5615277777778,"AREF, DIF WP Kalsow, Kloss New Energy, seebaWIND",
11.561527778,53.9238888890001,394,Mecklenburg-Vorpommern,Windpark Kalsow,2010,,,Enercon E-70(3×),,,53.9238888888889,11.5615277777778,,
11.5533055560001,53.9229722220001,395,Mecklenburg-Vorpommern,Windpark Hornstorf,2001,"11,7",9,Nordex N62(9×),Hornstorf,NWM,53.9229722222222,11.5533055555556,,
11.246527778,53.919833333,396,Mecklenburg-Vorpommern,Windkraftanlage Wohlenhagen,1993,"0,11",1,Seewind 20/110 (1×),Wohlenhagen,NWM,53.9198333333333,11.2465277777778,,
12.545,53.9191666670001,397,Mecklenburg-Vorpommern,Windpark Dalwitz,2013,"27,45",9,Enercon E-101(9×),Dalwitz,LRO,53.9191666666667,12.545,wpd,
12.545,53.9191666670001,398,Mecklenburg-Vorpommern,Windpark Dalwitz,2014,,,,,,53.9191666666667,12.545,,
10.4226944440001,53.9188888890001,399,Schleswig-Holstein,Windkraftanlage Geschendorf,2001,"1,0",1,NEG Micon NM60/1000(1×),Geschendorf,SE,53.9188888888889,10.4226944444444,Denker & Wulf,
9.07138888900005,53.9166666670001,400,Schleswig-Holstein,Windpark Kattrepel,1997,"20,4",6,REpower 3.4M104(6×),Brunsbüttel,HEI,53.9166666666667,9.07138888888889,Denker & Wulf,Repowering2013 (6×REpower 3.4M104statt 3×Nordex N54)
9.07138888900005,53.9166666670001,401,Schleswig-Holstein,Windpark Kattrepel,2013,,,,,,53.9166666666667,9.07138888888889,,
12.001916667,53.9163611110001,402,Mecklenburg-Vorpommern,Windkraftanlagen Hof Tatschow,2000,"1,0",2,Enercon E-40/5.40(2×),Hof Tatschow,LRO,53.9163611111111,12.0019166666667,,
13.642777778,53.9152777780001,403,Mecklenburg-Vorpommern,Windpark Klein Bünzow,1998,"32,3",17,Enercon E-66/15.66(7×),Klein Bünzow,VG,53.9152777777778,13.6427777777778,WPB WP Klein Bünzow,
13.642777778,53.9152777780001,404,Mecklenburg-Vorpommern,Windpark Klein Bünzow,2004,,,Enercon E-66/20.70(1×),,,53.9152777777778,13.6427777777778,,
13.642777778,53.9152777780001,405,Mecklenburg-Vorpommern,Windpark Klein Bünzow,2008,,,Vestas V80-2MW(2×),,,53.9152777777778,13.6427777777778,,
13.642777778,53.9152777780001,406,Mecklenburg-Vorpommern,Windpark Klein Bünzow,2009,,,Enercon E-70(6×),,,53.9152777777778,13.6427777777778,,
13.642777778,53.9152777780001,407,Mecklenburg-Vorpommern,Windpark Klein Bünzow,,,,Vestas V90-2MW(1×),,,53.9152777777778,13.6427777777778,,
8.02608333300003,53.915111111,408,"Bremen, Hamburg und Niedersachsen",Offshore-Windenergieanlagen-Testfeld Anzetel-Wehlens[20],2014,"18,0",4,Nordex N117/3000(1×),Wehlens,WHV,53.9151111111111,8.02608333333333,"OTF Anzetel, Pommer & Schwarz, Bioenergie Nord","Testfeld für Offshore-Windkraftanlagen, die beiden Siemens-Anlagen haben den größten Rotordurchmesser aller Windkraftanlagen in Deutschland (154m)"
8.02608333300003,53.915111111,409,"Bremen, Hamburg und Niedersachsen",Offshore-Windenergieanlagen-Testfeld Anzetel-Wehlens[20],,,,Siemens SWT-6.0-154(2×),,,53.9151111111111,8.02608333333333,,
8.02608333300003,53.915111111,410,"Bremen, Hamburg und Niedersachsen",Offshore-Windenergieanlagen-Testfeld Anzetel-Wehlens[20],,,,Vestas V112-3.0MW(1×),,,53.9151111111111,8.02608333333333,,
9.08222222200004,53.9144444440001,411,Schleswig-Holstein,Windpark Westerbelmhusen,1994,"11,5",5,Enercon E-82 E2(5×),Westerbelmhusen,HEI,53.9144444444444,9.08222222222222,Bürgerwind Brunsbüttel,"Repowering2013 (5×Enercon E-82 E2statt 1× AN Bonus 450/37, 1× GET Danwin 27, 6×Enercon E-40/5.40und 1×Vestas V39-500kW)"
9.08222222200004,53.9144444440001,412,Schleswig-Holstein,Windpark Westerbelmhusen,2013,,,,,,53.9144444444444,9.08222222222222,,
13.3025,53.9136111110001,413,Mecklenburg-Vorpommern,Windkraftanlage Müssentin,1994,"0,5",1,Enercon E-40/5.40(1×),Müssentin,VG,53.9136111111111,13.3025,ContinoWind,früher noch 2× Seewind 20/110
13.3025,53.9136111110001,414,Mecklenburg-Vorpommern,Windkraftanlage Müssentin,1998,,,,,,53.9136111111111,13.3025,,
13.150277778,53.9136111110001,415,Mecklenburg-Vorpommern,Windpark Kletzin,1998,"17,4",9,Vestas V44-600kW(4×),Kletzin,MSE,53.9136111111111,13.1502777777778,,Repowering2014 (5×Vestas V112-3.0MWstatt 11×Vestas V44-600kW)
13.150277778,53.9136111110001,416,Mecklenburg-Vorpommern,Windpark Kletzin,2014,,,Vestas V112-3.0MW(5×),,,53.9136111111111,13.1502777777778,,
9.22833333300002,53.9127777780001,417,Schleswig-Holstein,Windpark Büttel-Holstendamm,2007,"25,0",5,REpower 5M(5×),Büttel,IZ,53.9127777777778,9.22833333333333,"Allianz, WP Büttel",
13.660638889,53.9122222220001,418,Mecklenburg-Vorpommern,Windpark Ramitzow,1996,"1,5",3,Enercon E-40/5.40(3×),Ramitzow,VG,53.9122222222222,13.6606388888889,,
10.568222222,53.9113333330001,419,Schleswig-Holstein,Windkraftanlagen Krumbecker Hof,1997,"1,0",2,Enercon E-40/5.40(2×),Krumbeck,OH,53.9113333333333,10.5682222222222,,
13.094166667,53.910027778,420,Mecklenburg-Vorpommern,Windpark Demmin,1997,"2,4",4,AN Bonus 600/44 (4×),Demmin,MSE,53.9100277777778,13.0941666666667,,
13.128472222,53.9090277780001,421,Mecklenburg-Vorpommern,Windpark Quitzerow,2006,"6,0",3,Vestas V90-2MW(3×),Quitzerow,MSE,53.9090277777778,13.1284722222222,"Calliston, Bürgerwindpark Quitzerow",
10.400555556,53.908333333,422,Schleswig-Holstein,Windpark Neuengörs,2001,"9,0",6,REpower MD70(6×),Rehhorst,OD,53.9083333333333,10.4005555555556,Windprojekt N-W,
13.37,53.906944444,423,Mecklenburg-Vorpommern,Windpark Klein Toitin,1996,"2,4",4,Tacke TW 600 (4×),Klein Toitin,VG,53.9069444444444,13.37,WP Klein Toitin,
9.23861111100007,53.9066666670001,424,Schleswig-Holstein,Windpark Büttel,1995,"10,22",17,Vestas V39-500kW(6×),Büttel,IZ,53.9066666666667,9.23861111111111,"WKN, ContinoWind",
9.23861111100007,53.9066666670001,425,Schleswig-Holstein,Windpark Büttel,1997,,,AN Bonus 600/41 (4×),,,53.9066666666667,9.23861111111111,,
9.23861111100007,53.9066666670001,426,Schleswig-Holstein,Windpark Büttel,1998,,,Enercon E-40/5.40(3×),,,53.9066666666667,9.23861111111111,,
9.23861111100007,53.9066666670001,427,Schleswig-Holstein,Windpark Büttel,1999,,,AN Bonus 1000/54 (2×),,,53.9066666666667,9.23861111111111,,
9.23861111100007,53.9066666670001,428,Schleswig-Holstein,Windpark Büttel,,,,Vestas V47-660kW(2×),,,53.9066666666667,9.23861111111111,,
9.26888888900004,53.905833333,429,Schleswig-Holstein,Windpark Landscheide,2001,"11,0",7,NEG Micon NM64c/1500(6×),Landscheide,IZ,53.9058333333333,9.26888888888889,"Gewi,wpd",
9.26888888900004,53.905833333,430,Schleswig-Holstein,Windpark Landscheide,2007,,,Enercon E-70(1×),,,53.9058333333333,9.26888888888889,,
12.039027778,53.9057222220001,431,Mecklenburg-Vorpommern,Windpark Kambs[39],2015,"35,0",14,Nordex N100/2500(14×),Kambs,LRO,53.9057222222222,12.0390277777778,"Denker & Wulf, Kloss New Energy",
13.1484722220001,53.905,432,Mecklenburg-Vorpommern,Windpark Siedenbrünzow,1998,"16,8",10,Enercon E-66/15.66(9×),Kletzin,MSE,53.905,13.1484722222222,Siedenbrünzower Windkraft,
13.1484722220001,53.905,433,Mecklenburg-Vorpommern,Windpark Siedenbrünzow,2002,,,Enercon E-66/18.70(1×),,,53.905,13.1484722222222,,
9.385,53.904722222,434,Schleswig-Holstein,Windpark Dammfleth,1999,"23,0",10,Enercon E-70(10×),Dammfleth,IZ,53.9047222222222,9.385,Prokon,"Repowering2012 (2×Enercon E-70statt 3×Nordex N60) und 2014 (8×Enercon E-70statt 3×Nordex N54, 2×Nordex N60und 4×NEG Micon NM64c/1500)"
9.385,53.904722222,435,Schleswig-Holstein,Windpark Dammfleth,2001,,,,,,53.9047222222222,9.385,,
9.385,53.904722222,436,Schleswig-Holstein,Windpark Dammfleth,2012,,,,,,53.9047222222222,9.385,,
9.385,53.904722222,437,Schleswig-Holstein,Windpark Dammfleth,2014,,,,,,53.9047222222222,9.385,,
9.07527777800004,53.902222222,438,Schleswig-Holstein,Windpark Brunsbüttel-West,2010,"41,4",18,Enercon E-82(18×),Brunsbüttel,HEI,53.9022222222222,9.07527777777778,Denker & Wulf,Repowering2010 (18×Enercon E-82statt 19× versch. Altanlagen)
9.26277777800004,53.90125,439,Schleswig-Holstein,Windpark St. Margarethen,2001,"3,9",3,AN Bonus 1300/62 (3×),St. Margarethen,IZ,53.90125,9.26277777777778,,
12.136388889,53.900833333,440,Mecklenburg-Vorpommern,Windpark Rukieten,2003,"28,45",11,Enercon E-58(1×),Rukieten,LRO,53.9008333333333,12.1363888888889,"wpd, EBETHO",
12.136388889,53.900833333,441,Mecklenburg-Vorpommern,Windpark Rukieten,2013,,,Enercon E-101(10×),,,53.9008333333333,12.1363888888889,,
11.8348611110001,53.898611111,442,Mecklenburg-Vorpommern,Windpark Moltenow[50],1995,"2,0",4,Vestas V39-500kW(4×),Moltenow,LRO,53.8986111111111,11.8348611111111,MBBF,
11.4090555560001,53.896694444,443,Mecklenburg-Vorpommern,Windkraftanlage Wismar,1996,"0,5",1,Enercon E-40/5.40(1×),Wismar,HWI,53.8966944444444,11.4090555555556,,
9.19583333300005,53.894166667,444,Schleswig-Holstein,Windpark Brunsbüttelkoog,1994,"14,65",9,AN Bonus 450/37 (1×),Brunsbüttelkoog,HEI,53.8941666666667,9.19583333333333,Gewi,"errichtet auf Gelände des ehem.Kernkraftwerk Brunsbüttel, Prototypen derAutoflugA 1200 (Zweiflügler) undREpower 5M"
9.19583333300005,53.894166667,445,Schleswig-Holstein,Windpark Brunsbüttelkoog,1995,,,AutoflugA 1200 (1×),,,53.8941666666667,9.19583333333333,,
9.19583333300005,53.894166667,446,Schleswig-Holstein,Windpark Brunsbüttelkoog,2000,,,NEG Micon NM60/1000(1×),,,53.8941666666667,9.19583333333333,,
9.19583333300005,53.894166667,447,Schleswig-Holstein,Windpark Brunsbüttelkoog,2001,,,AN Bonus 1000/54 (1×),,,53.8941666666667,9.19583333333333,,
9.19583333300005,53.894166667,448,Schleswig-Holstein,Windpark Brunsbüttelkoog,2004,,,AN Bonus 2000/76 (1×),,,53.8941666666667,9.19583333333333,,
9.19583333300005,53.894166667,449,Schleswig-Holstein,Windpark Brunsbüttelkoog,,,,Enercon E-82(1×),,,53.8941666666667,9.19583333333333,,
9.19583333300005,53.894166667,450,Schleswig-Holstein,Windpark Brunsbüttelkoog,,,,REpower MD77(2×),,,53.8941666666667,9.19583333333333,,
9.19583333300005,53.894166667,451,Schleswig-Holstein,Windpark Brunsbüttelkoog,,,,REpower 5M(1×),,,53.8941666666667,9.19583333333333,,
11.9275,53.892222222,452,Mecklenburg-Vorpommern,Windpark Bernitt[16],2014,"45,75",15,Enercon E-101(15×),Bernitt,LRO,53.8922222222222,11.9275,"MBBF, Kloss New Energy",
11.9275,53.892222222,453,Mecklenburg-Vorpommern,Windpark Bernitt[16],2015,,,,Kurzen Trechow,,53.8922222222222,11.9275,,
10.460555556,53.890833333,454,Schleswig-Holstein,Windpark Rehhorst,2001,"7,5",5,NEG Micon NM72c/1500(5×),Rehhorst,OD,53.8908333333333,10.4605555555556,"e3, Plan 8",
13.336944444,53.890277778,455,Mecklenburg-Vorpommern,Windpark Völschow[73],1998,"50,25",22,Nordex N54(4×),Völschow,VG,53.8902777777778,13.3369444444444,"MBBF,GGEW, WP Völschow","errichtet beiderseits derA 20,Repowering2014 (4×Vestas V90-2MWund 1×Vestas V112-3.0MWstatt 6×Nordex N43)"
13.336944444,53.890277778,456,Mecklenburg-Vorpommern,Windpark Völschow[73],1999,,,Vestas V90-2MW(8×),,,53.8902777777778,13.3369444444444,,
13.336944444,53.890277778,457,Mecklenburg-Vorpommern,Windpark Völschow[73],2008,,,Vestas V112-3.0MW(5×),,,53.8902777777778,13.3369444444444,,
13.336944444,53.890277778,458,Mecklenburg-Vorpommern,Windpark Völschow[73],2013,,,Enercon E-101(5×),,,53.8902777777778,13.3369444444444,,
13.336944444,53.890277778,459,Mecklenburg-Vorpommern,Windpark Völschow[73],2014,,,,,,53.8902777777778,13.3369444444444,,
13.336944444,53.890277778,460,Mecklenburg-Vorpommern,Windpark Völschow[73],2015,,,,,,53.8902777777778,13.3369444444444,,
9.40916666700002,53.888333333,461,Schleswig-Holstein,Windkraftanlagen Beidenfleth,1995,"1,2",2,Vestas V44-600kW(1×),Beidenfleth,IZ,53.8883333333333,9.40916666666667,,
9.36833333300007,53.885555556,462,Schleswig-Holstein,Windpark Hochfeld,2001,"11,6",8,Nordex N60(2×),Hochfeld,IZ,53.8855555555556,9.36833333333333,EFI Wind,
9.36833333300007,53.885555556,463,Schleswig-Holstein,Windpark Hochfeld,,,,NEG Micon NM64c/1500(6×),,,53.8855555555556,9.36833333333333,,
10.4938888890001,53.8836111110001,464,Schleswig-Holstein,Windpark Zarpen,1992,"0,9",3,AN Bonus 150/30 (2×),Zarpen,OD,53.8836111111111,10.4938888888889,,
10.4938888890001,53.8836111110001,465,Schleswig-Holstein,Windpark Zarpen,1996,,,Vesas V44-600kW(1×),,,53.8836111111111,10.4938888888889,,
11.371222222,53.8819444440001,466,Mecklenburg-Vorpommern,Windpark Stofferstorf,2002,"29,6",16,Enercon E-66/18.70(8×),Stofferstorf,NWM,53.8819444444444,11.3712222222222,,
11.371222222,53.8819444440001,467,Mecklenburg-Vorpommern,Windpark Stofferstorf,2009,,,Enercon E-70(4×),Barnekow,,53.8819444444444,11.3712222222222,,
11.371222222,53.8819444440001,468,Mecklenburg-Vorpommern,Windpark Stofferstorf,2011,,,Vensys 77 (4×),,,53.8819444444444,11.3712222222222,,
11.371222222,53.8819444440001,469,Mecklenburg-Vorpommern,Windpark Stofferstorf,2012,,,,,,53.8819444444444,11.3712222222222,,
11.371222222,53.8819444440001,470,Mecklenburg-Vorpommern,Windpark Stofferstorf,2013,,,,,,53.8819444444444,11.3712222222222,,
11.371222222,53.8819444440001,471,Mecklenburg-Vorpommern,Windpark Stofferstorf,2014,,,,,,53.8819444444444,11.3712222222222,,
12.118444444,53.8806388890001,472,Mecklenburg-Vorpommern,Windkraftanlagen Werle,2001,"1,2",2,Enercon E-40/6.44(2×),Werle,LRO,53.8806388888889,12.1184444444444,CW Consult,
13.4363888890001,53.8786111110001,473,Mecklenburg-Vorpommern,Windpark Neetzow-Liepen[52],2013,"42,7",14,Enercon E-101(14×),Neetzow-Liepen,VG,53.8786111111111,13.4363888888889,"Wallenborn Projekt, Planungsgesellschaft Neetzow-Liepen",
13.4363888890001,53.8786111110001,474,Mecklenburg-Vorpommern,Windpark Neetzow-Liepen[52],2014,,,,,,53.8786111111111,13.4363888888889,,
12.215333333,53.8761944440001,475,Mecklenburg-Vorpommern,Windkraftanlage Siemitz[7],2014,"3,0",1,Vestas V112-3.0MW(1×),Siemitz,LRO,53.8761944444445,12.2153333333333,MBBF,
10.891388889,53.8761111110001,476,Mecklenburg-Vorpommern,Windpark Selmsdorf-Sülsdorf[66],2007,"29,9",13,Enercon E-70(8×),Selmsdorf,NWM,53.8761111111111,10.8913888888889,"BayWar.e., KKB, AREF WP Selmsdorf-Sülsdorf",
10.891388889,53.8761111110001,477,Mecklenburg-Vorpommern,Windpark Selmsdorf-Sülsdorf[66],2013,,,Enercon E-82 E2(5×),Sülsdorf,,53.8761111111111,10.8913888888889,,
11.9531388890001,53.87575,478,Mecklenburg-Vorpommern,Windpark Bützow[22],1995,"18,1",13,Enercon E-40/5.40(1×),Langen Trechow,LRO,53.87575,11.9531388888889,"win:pro, WP Bützow",Repowering2014 (2×Enercon E-70statt 2×Enercon E-40/5.40)
11.9531388890001,53.87575,479,Mecklenburg-Vorpommern,Windpark Bützow[22],2003,,,Vestas V52-850kW(2×),Parkow,,53.87575,11.9531388888889,,
11.9531388890001,53.87575,480,Mecklenburg-Vorpommern,Windpark Bützow[22],2014,,,Vestas V66-1.65MW(4×),,,53.87575,11.9531388888889,,
11.9531388890001,53.87575,481,Mecklenburg-Vorpommern,Windpark Bützow[22],,,,Enercon E-53(3×),,,53.87575,11.9531388888889,,
11.9531388890001,53.87575,482,Mecklenburg-Vorpommern,Windpark Bützow[22],,,,Enercon E-70(2×),,,53.87575,11.9531388888889,,
10.84825,53.8736944440001,483,Mecklenburg-Vorpommern,Windkraftanlagen Selmsdorf,1995,"0,54",2,Südwind N 3127 (2×),Selmsdorf,NWM,53.8736944444444,10.84825,WP Selmsdorf I–III,früher drei Anlagen
12.214222222,53.8694444440001,484,Mecklenburg-Vorpommern,Windpark Bredentin,2013,"15,25",5,Enercon E-101(5×),Bredentin,LRO,53.8694444444444,12.2142222222222,wpd,
10.4255555560001,53.8663888890001,485,Schleswig-Holstein,Windpark Havighorst,2002,"9,0",6,REpower MD70(6×),Havighorst,OD,53.8663888888889,10.4255555555556,"Denker & Wulf, WP Havighorst",
11.348888889,53.8655555560001,486,Mecklenburg-Vorpommern,Windpark Gressow,1995,"1,8",3,Micon M1800-600(3×),Gressow,NWM,53.8655555555556,11.3488888888889,,
12.117361111,53.864611111,487,Mecklenburg-Vorpommern,Windpark Mistorf-Groß Schwiesow,2001,"6,9",16,AN Bonus 2000/76 (11×),Mistorf,LRO,53.8646111111111,12.1173611111111,wpd,
12.0879722220001,53.8644444440001,488,Mecklenburg-Vorpommern,Windpark Oettelin[55],2014,"20,0",8,Nordex N100/2500(8×),Oettelin,LRO,53.8644444444445,12.0879722222222,Enertrag,
12.0879722220001,53.8644444440001,489,Mecklenburg-Vorpommern,Windpark Oettelin[55],,,,,Groß Schwiesow,,53.8644444444445,12.0879722222222,,
12.221944444,53.8636111110001,490,Mecklenburg-Vorpommern,Windpark Kuhs[44][45],1998,"9,0",8,Tacke TW 600 (5×),Kuhs,LRO,53.8636111111111,12.2219444444444,"MBBF,WEB Windenergie",
12.221944444,53.8636111110001,491,Mecklenburg-Vorpommern,Windpark Kuhs[44][45],2004,,,Vestas V90-2MW(3×),,,53.8636111111111,12.2219444444444,,
12.088,53.8560555560001,492,Mecklenburg-Vorpommern,Windpark Mistorf-Groß Schwiesow,2003,,,Enercon E-66/18.70(1×),Groß Schwiesow,,53.8560555555556,12.088,,
12.088,53.8560555560001,493,Mecklenburg-Vorpommern,Windpark Mistorf-Groß Schwiesow,2004,,,Enercon E-70(1×),,,53.8560555555556,12.088,,
12.088,53.8560555560001,494,Mecklenburg-Vorpommern,Windpark Mistorf-Groß Schwiesow,2014,,,Enercon E-82 E2(3×),,,53.8560555555556,12.088,,
9.56833333300006,53.8530555560001,495,Schleswig-Holstein,Windpark Neuenbrook[18],2001,"11,1",7,Vestas V66-1.65MW(4×),Neuenbrook,IZ,53.8530555555556,9.56833333333333,"Bürger-WP Neuenbrook, Butzkies Windprojekt","eine Vensys-Anlage mit Prototyp eines ""wartungsfreien Gittermastes"" der Fa. Butzkies Stahlbau"
9.56833333300006,53.8530555560001,496,Schleswig-Holstein,Windpark Neuenbrook[18],2012,,,Vensys 77 (2×),,,53.8530555555556,9.56833333333333,,
9.56833333300006,53.8530555560001,497,Schleswig-Holstein,Windpark Neuenbrook[18],,,,Vensys 77(1×),,,53.8530555555556,9.56833333333333,,
9.54638888900007,53.8488888890001,498,Schleswig-Holstein,Windpark Grevenkop[11],1995,"9,1",12,Tacke TW 600 (1×),Grevenkop,IZ,53.8488888888889,9.54638888888889,Bürger-WP Grevenkop,
9.54638888900007,53.8488888890001,499,Schleswig-Holstein,Windpark Grevenkop[11],1999,,,WindWorld W5200 (10×),,,53.8488888888889,9.54638888888889,,
9.54638888900007,53.8488888890001,500,Schleswig-Holstein,Windpark Grevenkop[11],2001,,,NEG Micon NM60/1000(1×),,,53.8488888888889,9.54638888888889,,
11.528611111,53.8441666670001,501,Mecklenburg-Vorpommern,Windpark Lübow[48],1996,"2,0",4,Enercon E-40/5.40(4×),Wietow,NWM,53.8441666666667,11.5286111111111,"Rübsamen Windenergie, URS WP Lübow",
10.963055556,53.8415277780001,502,Mecklenburg-Vorpommern,Windpark Schönberg,1998,"13,4",13,Vestas V44-600kW(8×),Schönberg,NWM,53.8415277777778,10.9630555555556,"Calliston, WKN WP Schönberg",
10.963055556,53.8415277780001,503,Mecklenburg-Vorpommern,Windpark Schönberg,1999,,,NEG Micon NM60/1000(2×),Sabow,,53.8415277777778,10.9630555555556,,
10.963055556,53.8415277780001,504,Mecklenburg-Vorpommern,Windpark Schönberg,2004,,,Vestas V80-2MW(1×),,,53.8415277777778,10.9630555555556,,
10.963055556,53.8415277780001,505,Mecklenburg-Vorpommern,Windpark Schönberg,2010–2016,,,Enercon E-82 E2(3×),,,53.8415277777778,10.9630555555556,,
13.5658333330001,53.839444444,506,Mecklenburg-Vorpommern,Windpark Postlow[61],1999,"11,6",7,Enron Wind 1.5s(4×),Postlow,VG,53.8394444444444,13.5658333333333,Enertrag,
13.5658333330001,53.839444444,507,Mecklenburg-Vorpommern,Windpark Postlow[61],2002,,,Enercon E-66/18.70(1×),,,53.8394444444444,13.5658333333333,,
13.5658333330001,53.839444444,508,Mecklenburg-Vorpommern,Windpark Postlow[61],2003,,,Nordex N90/2300(1×),,,53.8394444444444,13.5658333333333,,
13.5658333330001,53.839444444,509,Mecklenburg-Vorpommern,Windpark Postlow[61],,,,GE Wind Energy 1.5sl(1×),,,53.8394444444444,13.5658333333333,,
10.273333333,53.836944444,510,Schleswig-Holstein,Windpark Tralau,2001,"8,0",4,Vestas V80-2MW(4×),Tralau,OD,53.8369444444445,10.2733333333333,e3,
13.027222222,53.834444444,511,Mecklenburg-Vorpommern,Windpark Beggerow-Borrentin[13],2012,"48,22",18,Enercon E-82 E2(7×),Beggerow,MSE,53.8344444444445,13.0272222222222,"wpd, Naturwind",
13.027222222,53.834444444,512,Mecklenburg-Vorpommern,Windpark Beggerow-Borrentin[13],2013,,,Enercon E-101(8×),Pentz,,53.8344444444445,13.0272222222222,,
13.027222222,53.834444444,513,Mecklenburg-Vorpommern,Windpark Beggerow-Borrentin[13],2014,,,Enercon E-92(2×),,,53.8344444444445,13.0272222222222,,
13.027222222,53.834444444,514,Mecklenburg-Vorpommern,Windpark Beggerow-Borrentin[13],,,,Vestas V112-3.0 MW(1×),,,53.8344444444445,13.0272222222222,,
9.57611111100005,53.833333333,515,Schleswig-Holstein,Windpark Süderau,2000,"13,35",15,Tacke TW 600a (9×),Süderau,IZ,53.8333333333333,9.57611111111111,Windkraft Süderau,
9.57611111100005,53.833333333,516,Schleswig-Holstein,Windpark Süderau,2002,,,REpower 48/600(3×),Grönland,,53.8333333333333,9.57611111111111,,
9.57611111100005,53.833333333,517,Schleswig-Holstein,Windpark Süderau,2015,,,Senvion MM92(3×),,,53.8333333333333,9.57611111111111,,
13.5477777780001,53.832222222,518,Mecklenburg-Vorpommern,Windpark Medow,2006,"12,0",6,Vestas V90-2MW(6×),Medow,VG,53.8322222222222,13.5477777777778,WP Medow,
11.141111111,53.831388889,519,Mecklenburg-Vorpommern,Windpark Questin,2010,"9,1",4,Kenersys K82 (1×),Questin,NWM,53.8313888888889,11.1411111111111,Kenersys,Windtestfeld zum Testen der Prototypen des HerstellersKenersys
11.141111111,53.831388889,520,Mecklenburg-Vorpommern,Windpark Questin,2012,,,Kenersys K100 (1×),,,53.8313888888889,11.1411111111111,,
11.141111111,53.831388889,521,Mecklenburg-Vorpommern,Windpark Questin,2014,,,Kenersys K110 (1×),,,53.8313888888889,11.1411111111111,,
11.141111111,53.831388889,522,Mecklenburg-Vorpommern,Windpark Questin,,,,Kenersys K120 (1×),,,53.8313888888889,11.1411111111111,,
12.480833333,53.8310555560001,523,Mecklenburg-Vorpommern,Windpark Amalienhof,2002,"17,2",10,Enercon E-66/18.70(8×),Dalkendorf,LRO,53.8310555555556,12.4808333333333,"Notus, WP Amalienhof",
12.480833333,53.8310555560001,524,Mecklenburg-Vorpommern,Windpark Amalienhof,2009,,,Enercon E-53(1×),Gottin,,53.8310555555556,12.4808333333333,,
12.480833333,53.8310555560001,525,Mecklenburg-Vorpommern,Windpark Amalienhof,2010,,,Vestas V90-2MW(1×),,,53.8310555555556,12.4808333333333,,
12.2608333330001,53.830277778,526,Mecklenburg-Vorpommern,Windpark Glasewitz[27],2014,"27,4",9,Enercon E-101(8×),Glasewitz,LRO,53.8302777777778,12.2608333333333,"Notus, Saxovent","errichtet an derA 19, Prototyp derNordex N117/3000"
12.2608333330001,53.830277778,527,Mecklenburg-Vorpommern,Windpark Glasewitz[27],,,,Nordex N117/3000(1×),,,53.8302777777778,12.2608333333333,,
11.2472222220001,53.830277778,528,Mecklenburg-Vorpommern,Windpark Groß Pravtshagen,2000,"4,2",7,NEG Micon NM48/600(7×),Groß Pravtshagen,NWM,53.8302777777778,11.2472222222222,WP Groß Pravtshagen,Errichtet an derA 20
11.201666667,53.8275,529,Mecklenburg-Vorpommern,Windpark Upahl,1993,"6,1",3,REpower MD70(1×),Upahl,NWM,53.8275,11.2016666666667,WP Groß Pravtshagen,"errichtet an derA 20,Repowering2013 (1×Enercon E-82 E2statt 1× Micon M1500-500)"
11.201666667,53.8275,530,Mecklenburg-Vorpommern,Windpark Upahl,2001,,,Enercon E-82 E2(2×),,,53.8275,11.2016666666667,,
11.201666667,53.8275,531,Mecklenburg-Vorpommern,Windpark Upahl,2010,,,,,,53.8275,11.2016666666667,,
11.201666667,53.8275,532,Mecklenburg-Vorpommern,Windpark Upahl,2013,,,,,,53.8275,11.2016666666667,,
9.1875,53.826666667,533,"Bremen, Hamburg und Niedersachsen",Windpark Wechtern,1995,"1,8",3,Vestas V44-600kW (3×),Wechtern,STD,53.8266666666667,9.1875,Energiekontor,
9.6175,53.825555556,534,Schleswig-Holstein,Windpark Horst,1999,"14,4",10,Nordex N60(8×),Horst,IZ,53.8255555555556,9.6175,"Prokon, WKN",
9.6175,53.825555556,535,Schleswig-Holstein,Windpark Horst,2005,,,Vestas V80-2MW(2×),,,53.8255555555556,9.6175,,
8.65833333300003,53.823888889,536,"Bremen, Hamburg und Niedersachsen",Windpark Üssinghausen[121],2007,"12,0",5,Enercon E-70(6×),Üssinghausen,ROW,53.8238888888889,8.65833333333333,RWE Innogy,
8.65833333300003,53.823888889,537,"Bremen, Hamburg und Niedersachsen",Windpark Üssinghausen[121],2009,,,,,,53.8238888888889,8.65833333333333,,
12.5006666670001,53.821666667,538,Mecklenburg-Vorpommern,Windkraftanlage Dalkendorf[3],1998,"0,66",1,Vestas V47-660kW(1×),Dalkendorf,LRO,53.8216666666667,12.5006666666667,,
13.1141666670001,53.8208333330001,539,Mecklenburg-Vorpommern,Windpark Sarow[64],2012,"24,0",12,Gamesa G90 (12×),Ganschendorf,MSE,53.8208333333333,13.1141666666667,KGAL,
13.1141666670001,53.8208333330001,540,Mecklenburg-Vorpommern,Windpark Sarow[64],2014,,,,,,53.8208333333333,13.1141666666667,,
8.07888888900004,53.817777778,541,"Bremen, Hamburg und Niedersachsen",Windpark Altenbruch[17],1998–1999,"49,2",27,Nordex N60/1300(18×),Altenbruch,CUX,53.8177777777778,8.07888888888889,PNE Wind,Repowering 2016: (9 ×Nordex N117/3000statt 16 × Nordex N60)[18]
8.07888888900004,53.817777778,542,"Bremen, Hamburg und Niedersachsen",Windpark Altenbruch[17],2008–2009,,,Siemens SWT-3.6-107(3×),Westerende,,53.8177777777778,8.07888888888889,,
8.07888888900004,53.817777778,543,"Bremen, Hamburg und Niedersachsen",Windpark Altenbruch[17],,,,Vestas V90-2MW(3×),,,53.8177777777778,8.07888888888889,,
8.07888888900004,53.817777778,544,"Bremen, Hamburg und Niedersachsen",Windpark Altenbruch[17],,,,Vestas V90-3MW(3×),,,53.8177777777778,8.07888888888889,,
9.07055555600004,53.8152777780001,545,"Bremen, Hamburg und Niedersachsen",Windpark Balje-Hörne,1999–2000,"9,1",7,AN Bonus 1300/68 (7×),Hörne,STD,53.8152777777778,9.07055555555556,N.prior energy,
10.5921111110001,53.8072222220001,546,Schleswig-Holstein,Windkraftanlage Groß Schenkenberg,1987,"0,6",1,Enercon E-40/6.44(1×),Groß Schenkenberg,RZ,53.8072222222222,10.5921111111111,,Früher noch 1×Enercon-16
10.5921111110001,53.8072222220001,547,Schleswig-Holstein,Windkraftanlage Groß Schenkenberg,2003,,,,,,53.8072222222222,10.5921111111111,,
10.4846666670001,53.8055277780001,548,Schleswig-Holstein,Windkraftanlage Barnitz[2],1990,"0,08",1,Enercon-17(1×),Barnitz,OD,53.8055277777778,10.4846666666667,Stadtwerke Reinfeld,
10.327222222,53.8052777780001,549,Schleswig-Holstein,Windkraftanlagen Bad Oldesloe,2001,"3,5",2,Enercon E-40/5.40(1×),Bad Oldesloe,OD,53.8052777777778,10.3272222222222,,"ursprünglich 2, die nördliche mittlerweile abgebaut"
10.327222222,53.8052777780001,550,Schleswig-Holstein,Windkraftanlagen Bad Oldesloe,2016,,,Enercon E-101(1×),,,53.8052777777778,10.3272222222222,,
11.0173888890001,53.8021666670001,551,Mecklenburg-Vorpommern,Windkraftanlage Gletzow,1993,"0,225",1,Vestas V27-225kW(1×),Gletzow,NWM,53.8021666666667,11.0173888888889,,früher zwei Anlagen
8.99055555600006,53.7994444440001,552,"Bremen, Hamburg und Niedersachsen",Windpark Belum,2004,16,8,AN Bonus 2000/76 (8×),Belum,CUX,53.7994444444444,8.99055555555555,wpd,
13.408611111,53.7986111110001,553,Mecklenburg-Vorpommern,Windpark Iven[38],2001,"35,55",14,Nordex N90/2500(3×),Iven,VG,53.7986111111111,13.4086111111111,"Ventotec,wpd, WP Iven","Repowering2007 und 2008 (3×Nordex N90/2500, 5×Vestas V90-2MWund 5×Vestas V90-3MWstatt 18× Nordwind NW 44-750)"
13.408611111,53.7986111110001,554,Mecklenburg-Vorpommern,Windpark Iven[38],2007,,,Vestas V90-2MW(5×),,,53.7986111111111,13.4086111111111,,
13.408611111,53.7986111110001,555,Mecklenburg-Vorpommern,Windpark Iven[38],2008,,,Vestas V90-3MW(5×),,,53.7986111111111,13.4086111111111,,
13.408611111,53.7986111110001,556,Mecklenburg-Vorpommern,Windpark Iven[38],2011,,,Enercon E-101(1×),,,53.7986111111111,13.4086111111111,,
11.276666667,53.7966666670001,557,Mecklenburg-Vorpommern,Windpark Harmshagen[32],2000,"9,2",4,Enercon E-70(4×),Harmshagen,NWM,53.7966666666667,11.2766666666667,"Landwind, Jan Luttuschka",Repowering2013 (vorher 4×Enercon E-40/5.40)
11.276666667,53.7966666670001,558,Mecklenburg-Vorpommern,Windpark Harmshagen[32],2013,,,,,,53.7966666666667,11.2766666666667,,
9.24861111100006,53.7958333330001,559,"Bremen, Hamburg und Niedersachsen",Windpark Breitendeich,2003,"15,0",10,GE Wind Energy 1.5sl(5×),Oederquart,STD,53.7958333333333,9.24861111111111,Energiekontor,
11.2391666670001,53.7955555560001,560,Mecklenburg-Vorpommern,Windpark Rüting,2003,"7,85",5,Vestas V52-850kW(2×),Rüting,NWM,53.7955555555556,11.2391666666667,"GL Industrial Services, Plan 8",
11.2391666670001,53.7955555560001,561,Mecklenburg-Vorpommern,Windpark Rüting,2012,,,e.n.o. energy 82 (3×),,,53.7955555555556,11.2391666666667,,
11.4475,53.795,562,Mecklenburg-Vorpommern,Windpark Losten,2004,"11,5",5,Nordex N90/2300(5×),Losten,NWM,53.795,11.4475,e.dis,
9.53261111100005,53.7936111110001,563,Schleswig-Holstein,Windpark Sommerland[23],1999,"6,0",4,Enercon E-66/15.66(4×),Sommerland,IZ,53.7936111111111,9.53261111111111,RWE Innogy,
9.28472222200003,53.7919444440001,564,"Bremen, Hamburg und Niedersachsen",Windpark Oederquart[95][96],1997,"33,85",20,Vestas V63-1.5MW (1×),Oederquart,STD,53.7919444444444,9.28472222222222,"Bürger-WP Oederquart,Energiekontor",3Enercon E-66/15.66ursprünglich 1997 beiFrischborn(Hessen) errichtet und dort wegen Planungsfehlern wieder zurückgebaut
9.28472222200003,53.7919444440001,565,"Bremen, Hamburg und Niedersachsen",Windpark Oederquart[95][96],1999,,,Enercon E-66/15.66(5×),,,53.7919444444444,9.28472222222222,,
9.28472222200003,53.7919444440001,566,"Bremen, Hamburg und Niedersachsen",Windpark Oederquart[95][96],2003,,,Vestas V66-1.65MW (9×),,,53.7919444444444,9.28472222222222,,
9.28472222200003,53.7919444440001,567,"Bremen, Hamburg und Niedersachsen",Windpark Oederquart[95][96],,,,AN Bonus 2000/76 (5×),,,53.7919444444444,9.28472222222222,,
8.58,53.7894444440001,568,"Bremen, Hamburg und Niedersachsen",Windpark Spieka-Neufeld[113],1995,"8,8",13,Vestas V44-600kW (9×),Spieka-Neufeld,CUX,53.7894444444444,8.58,Energiekontor,Repowering geplant
8.58,53.7894444440001,569,"Bremen, Hamburg und Niedersachsen",Windpark Spieka-Neufeld[113],2007,,,Vestas V52-850kW(4×),Oxstedt,,53.7894444444444,8.58,,
11.576638889,53.7888333330001,570,Mecklenburg-Vorpommern,Windkraftanlage Ventschow[8],1993,"0,11",1,Enercon E-40/5.40(1×),Ventschow,NWM,53.7888333333333,11.5766388888889,Betonwerk Ventschow,errichtet auf Betriebsgelände des Betonwerkes
11.015,53.786944444,571,Mecklenburg-Vorpommern,Windkraftanlagen Löwitz,2004,"3,0",2,Südwind S77(2×),Löwitz,NWM,53.7869444444444,11.015,WIDEMAG,
8.91611111100002,53.7852777780001,572,"Bremen, Hamburg und Niedersachsen",Windpark Neuenkirchen,1999,6,6,AN Bonus 1000/54 (6×),Neuenkirchen,CUX,53.7852777777778,8.91611111111111,Projekt GmbH,
10.8219444440001,53.7852777780001,573,Mecklenburg-Vorpommern,Windkraftanlagen Schlagsülsdorf,1996,"1,0",2,Micon M1500-500(2×),Schlagsülsdorf,NWM,53.7852777777778,10.8219444444444,,
13.6333333330001,53.780277778,574,Mecklenburg-Vorpommern,Windpark Müggenburg-Panschow,2001,"42,3",25,NEG Micon NM64c/1500(16×),Müggenburg,VG,53.7802777777778,13.6333333333333,"e3, WP Müggenburg/Panschow",
13.6333333330001,53.780277778,575,Mecklenburg-Vorpommern,Windpark Müggenburg-Panschow,2009,,,Vestas V90-2MW(8×),Panschow,,53.7802777777778,13.6333333333333,,
13.6333333330001,53.780277778,576,Mecklenburg-Vorpommern,Windpark Müggenburg-Panschow,2010,,,Enercon E-70(1×),Stretense,,53.7802777777778,13.6333333333333,,
13.6333333330001,53.780277778,577,Mecklenburg-Vorpommern,Windpark Müggenburg-Panschow,2011,,,,,,53.7802777777778,13.6333333333333,,
13.6333333330001,53.780277778,578,Mecklenburg-Vorpommern,Windpark Müggenburg-Panschow,2012,,,,,,53.7802777777778,13.6333333333333,,
13.760555556,53.779444444,579,Mecklenburg-Vorpommern,Windpark Neu Kosenow[53],2011–2012,"60,0",30,Vestas V90-2MW(30×),Neu Kosenow,VG,53.7794444444444,13.7605555555556,"Saxovent, Notus",
13.760555556,53.779444444,580,Mecklenburg-Vorpommern,Windpark Neu Kosenow[53],2013,,,,Ducherow,,53.7794444444444,13.7605555555556,,
8.81944444400006,53.779166667,581,"Bremen, Hamburg und Niedersachsen",Windpark Nordleda,1998,"24,6",43,AN Bonus 600/44 (31×),Nordleda,CUX,53.7791666666667,8.81944444444444,WP Nordleda,
8.81944444400006,53.779166667,582,"Bremen, Hamburg und Niedersachsen",Windpark Nordleda,2001,,,Enercon E-40/5.40(12×),,,53.7791666666667,8.81944444444444,,
8.96777777800003,53.778611111,583,"Bremen, Hamburg und Niedersachsen",Windpark Kehdingbruch,1999,"13,5",9,Enercon E-66/15.66(9×),Kehdingbruch,CUX,53.7786111111111,8.96777777777778,"Bürger-WP Kehdingbruch, Projekt GmbH",
10.454166667,53.774722222,584,Schleswig-Holstein,Windpark Rethwisch,2005,"4,5",3,NEG Micon NM64c/1500(3×),Rethwisch,OD,53.7747222222222,10.4541666666667,e3,
10.5013888890001,53.773888889,585,Schleswig-Holstein,Windpark Westerau[24],1997,"6,3",6,REpower 57/1000(6×),Westerau,OD,53.7738888888889,10.5013888888889,Denker&Wulf,
8.9525,53.769444444,586,"Bremen, Hamburg und Niedersachsen",Windpark Osterbruch,1999–2000,"3,0",3,Enercon E-58(3×),Osterbruch,CUX,53.7694444444445,8.9525,Energiekontor,
12.0995833330001,53.7676388890001,587,Mecklenburg-Vorpommern,Windkraftanlagen Bülow,1995,"1,0",2,Enercon E-40/5.40(2×),Bülow,LRO,53.7676388888889,12.0995833333333,,
11.1038888890001,53.755277778,588,Mecklenburg-Vorpommern,Windkraftanlage Köchelstorf,2000,"0,5",1,Enercon E-40/5.40(1×),Köchelstorf,NWM,53.7552777777778,11.1038888888889,,
8.53861111100002,53.7458333330001,589,"Bremen, Hamburg und Niedersachsen",Windpark Cappel-Neufeld,1988,"3,3",10,Enercon E-33(10×),Cappel-Neufeld,CUX,53.7458333333333,8.53861111111111,EWE AG,Repowering 2008 (vorher 10×Enercon E-15und 1989–1992 15×MBB Monopteros M20)
8.53861111100002,53.7458333330001,590,"Bremen, Hamburg und Niedersachsen",Windpark Cappel-Neufeld,1989,,,,,,53.7458333333333,8.53861111111111,,
8.53861111100002,53.7458333330001,591,"Bremen, Hamburg und Niedersachsen",Windpark Cappel-Neufeld,2008,,,,,,53.7458333333333,8.53861111111111,,
13.289777778,53.7452222220001,592,Mecklenburg-Vorpommern,Windkraftanlage Burow,2000,"0,6",1,Vestas V44-600kW(1×),Weltzin,MSE,53.7452222222222,13.2897777777778,,
10.400555556,53.7430555560001,593,Schleswig-Holstein,Windpark Lasbek[16],2004,"10,8",6,Enercon E-66/18.70(6×),Lasbek,OD,53.7430555555556,10.4005555555556,RWE Innogy,
9.59777777800002,53.7386111110001,594,Schleswig-Holstein,Windpark Raa-Besenbek,2001,"14,2",8,GE Wind Energy 1.5s(4×),Raa-Besenbek,PI,53.7386111111111,9.59777777777778,"Bürger-WP Raa-Besenbek, IB Henning Holst",
9.59777777800002,53.7386111110001,595,Schleswig-Holstein,Windpark Raa-Besenbek,2011,,,REpower MM92(4×),,,53.7386111111111,9.59777777777778,,
8.65555555600002,53.7263888890001,596,"Bremen, Hamburg und Niedersachsen",Windpark Midlum,1999,"35,0",70,Enercon E-40/5.40(70×),Midlum,CUX,53.7263888888889,8.65555555555556,Das Grüne Emissionshaus,
13.2455555560001,53.72,597,Mecklenburg-Vorpommern,Windkraftanlagen Klatzow,1997,"1,0",2,Enercon E-40/5.40(2×),Klatzow,MSE,53.72,13.2455555555556,WIND-projekt,
10.449166667,53.7175,598,Schleswig-Holstein,Windpark Schiphorst,2002,"4,0",4,NEG Micon NM60/1000(4×),Schiphorst,RZ,53.7175,10.4491666666667,e3,
12.903416667,53.7171111110001,599,Mecklenburg-Vorpommern,Windpark Stavenhagen[69],1996,"10,2",11,Tacke TW 600 (7×),Basepohl,MSE,53.7171111111111,12.9034166666667,MBBF,
12.903416667,53.7171111110001,600,Mecklenburg-Vorpommern,Windpark Stavenhagen[69],2001,,,Enron Wind 1.5s(4×),,,53.7171111111111,12.9034166666667,,
8.68583333300006,53.716111111,601,"Bremen, Hamburg und Niedersachsen",Windpark Krempel,1999,"20,8",16,Nordex N60(16×),Krempel,CUX,53.7161111111111,8.68583333333333,Energiekontor,
